{"version": 0.6, "generator": "Overpass API 0.7.59 e21c39fe", "osm3s": {"timestamp_osm_base": "2022-11-28T20:54:09Z", "copyright": "The data included in this document is from www.openstreetmap.org. The data is made available under ODbL."}, "elements": [{"type": "node", "id": 21627414, "lat": 53.5207517, "lon": 10.2770653, "tags": {"amenity": "restaurant", "cuisine": "asian", "name": "Westsee Palast", "wheelchair": "limited"}}, {"type": "node", "id": 25745452, "lat": 53.6080733, "lon": 10.1164404, "tags": {"toilets:wheelchair": "no", "phone": "+49 40 64537516", "outdoor_seating": "yes", "amenity": "restaurant", "addr:street": "August-Krogmann-Stra\u00dfe", "opening_hours": "Mo-Th 08:00-23:00; Fr 08:00-24:00; Sa 09:00-24:00; Su 09:00-23:00", "addr:postcode": "22159", "addr:housenumber": "25", "addr:city": "Hamburg", "name": "Schweinske Farmsen", "wheelchair": "yes"}}, {"type": "node", "id": 25943480, "lat": 53.5202193, "lon": 9.8857026, "tags": {"amenity": "restaurant", "cuisine": "german", "wheelchair": "no", "name": "Zum Storchennest", "addr:street": "Osterfelddeich", "addr:postcode": "21129", "addr:housenumber": "2", "addr:city": "Hamburg", "website": "https://storchennest-finkenwerder.jimdo.com", "email": "Storchennest-Finkenwerder@web.de", "fax": "+49 40 38088792", "opening_hours": "Tu-Fr 12:00-15:00,17:30-21:30; Sa 18:00-21:30; Su 12:00-15:00,17:30-21:30", "phone": "+49 40 7426850"}}, {"type": "node", "id": 29262146, "lat": 53.3986752, "lon": 10.1847899, "tags": {"wheelchair": "yes", "toilets:wheelchair": "yes", "source": "website + survey", "phone": "+49 40 7931330", "name": "Zollenspieker F\u00e4hrhaus", "website": "https://www.zollenspieker-faehrhaus.de/", "amenity": "restaurant"}}, {"type": "node", "id": 55104007, "lat": 53.6067274, "lon": 9.9030378, "tags": {"wheelchair": "yes", "opening_hours": "Mo-Sa 11:30-24:00; Su 11:30-23:00", "amenity": "restaurant", "cuisine": "steak_house", "name": "Block House", "smoking": "no"}}, {"type": "node", "id": 68487177, "lat": 53.6498082, "lon": 10.1639371, "tags": {"amenity": "restaurant", "name": "le Rustique", "toilets:wheelchair": "no", "wheelchair": "no"}}, {"type": "node", "id": 69150516, "lat": 53.6476044, "lon": 10.1642128, "tags": {"opening_hours": "Mo-Sa 11:30-24:00; Su 11:30-23:00", "addr:city": "Hamburg", "addr:country": "DE", "addr:housenumber": "12", "addr:postcode": "22359", "addr:street": "Groten Hoff", "amenity": "restaurant", "contact:phone": "+49 40 6037025", "cuisine": "steak_house", "delivery": "no", "diet:vegan": "yes", "diet:vegetarian": "yes", "fax": "+49 40 6032830", "microbrewery": "no", "name": "Block House", "operator": "Block House Restaurantbetriebe AG", "outdoor_seating": "yes", "payment:american_express": "yes", "payment:cash": "yes", "payment:girocard": "yes", "payment:mastercard": "yes", "payment:visa": "yes", "reservation": "yes", "smoking": "outside", "takeaway": "yes", "toilets:wheelchair": "no", "wheelchair": "yes"}}, {"type": "node", "id": 85572132, "lat": 53.5686691, "lon": 9.7031355}, {"type": "node", "id": 85572134, "lat": 53.5689537, "lon": 9.703509}, {"type": "node", "id": 85572135, "lat": 53.5692072, "lon": 9.7031312}, {"type": "node", "id": 85572136, "lat": 53.5690879, "lon": 9.702658}, {"type": "node", "id": 85572137, "lat": 53.5689545, "lon": 9.7024803}, {"type": "node", "id": 85572138, "lat": 53.5688738, "lon": 9.7026629}, {"type": "node", "id": 168294805, "lat": 53.582442, "lon": 9.7012237, "tags": {"website": "http://www.muehlenstein-wedel.de", "addr:city": "Wedel", "addr:country": "DE", "addr:housenumber": "25", "addr:postcode": "22880", "addr:street": "M\u00fchlenstra\u00dfe", "amenity": "restaurant", "cuisine": "international", "internet_access": "wlan", "name": "M\u00fchlenstein", "opening_hours": "Su-Th 11:30-00:00, Fr-Sa 11:30-01:00", "outdoor_seating": "yes", "phone": "+49 4103 90 555 17", "smoking": "isolated", "wheelchair": "limited"}}, {"type": "node", "id": 170780405, "lat": 53.5805153, "lon": 9.9055684, "tags": {"wheelchair": "no", "addr:housenumber": "82", "addr:street": "Nansenstra\u00dfe", "amenity": "restaurant", "name": "Das Bauernhaus", "phone": "+49 40 52014334", "website": "http://www.dasbauernhaus.de/"}}, {"type": "node", "id": 186560557, "lat": 53.5484126, "lon": 9.8541496, "tags": {"addr:city": "Hamburg", "addr:housenumber": "80", "addr:postcode": "22609", "addr:street": "Elbuferweg", "amenity": "restaurant", "cuisine": "regional", "lastcheck": "2013-10-14", "layer": "1", "name": "ELV \u2013 Das Elb-Restaurant", "opening_hours": "Mo-Su 11:30+", "phone": "+49 40 82 00 42", "website": "http://www.elv-restaurant.de/"}}, {"type": "node", "id": 243847847, "lat": 53.5576192, "lon": 9.9368391}, {"type": "node", "id": 244134270, "lat": 53.463016, "lon": 9.9815331, "tags": {"addr:city": "Hamburg", "addr:country": "DE", "addr:housenumber": "23", "addr:postcode": "21073", "addr:street": "Schlo\u00dfm\u00fchlendamm", "amenity": "restaurant", "level": "0", "name": "Oktober Harburg", "opening_hours": "PH,Mo-Th 09:00-23:00; Fr,Sa 09:00-24:00, Su 09:00-22:00", "phone": "+49 40 772618", "wheelchair": "limited"}}, {"type": "node", "id": 245564414, "lat": 53.4622644, "lon": 9.9819218, "tags": {"amenity": "restaurant", "cuisine": "turkish", "name": "H\u00fcnkar", "wheelchair": "limited"}}, {"type": "node", "id": 246089515, "lat": 53.604684, "lon": 9.7697339}, {"type": "node", "id": 246089516, "lat": 53.6049112, "lon": 9.7702913}, {"type": "node", "id": 246089517, "lat": 53.6048264, "lon": 9.7703736}, {"type": "node", "id": 246089519, "lat": 53.6046999, "lon": 9.770079}, {"type": "node", "id": 246089520, "lat": 53.6046219, "lon": 9.7701547}, {"type": "node", "id": 246089521, "lat": 53.6045294, "lon": 9.7698837}, {"type": "node", "id": 247635050, "lat": 53.6056728, "lon": 9.8014478}, {"type": "node", "id": 247635052, "lat": 53.6056494, "lon": 9.8016461}, {"type": "node", "id": 247635053, "lat": 53.605461, "lon": 9.801586}, {"type": "node", "id": 247635057, "lat": 53.6054406, "lon": 9.8013027}, {"type": "node", "id": 252504594, "lat": 53.556889, "lon": 9.9646444}, {"type": "node", "id": 252504595, "lat": 53.5568981, "lon": 9.964812}, {"type": "node", "id": 252504596, "lat": 53.5566299, "lon": 9.9648532}, {"type": "node", "id": 252504597, "lat": 53.5566208, "lon": 9.9646857}, {"type": "node", "id": 252537944, "lat": 53.4861811, "lon": 10.2134134, "tags": {"amenity": "restaurant", "contact:website": "http://www.casa-vecchia-bergedorf.de/", "name": "Casa Vecchia", "wheelchair": "no"}}, {"type": "node", "id": 253398267, "lat": 53.5394918, "lon": 10.1040249, "tags": {"phone": "+49 40 73433380", "amenity": "restaurant", "cuisine": "german", "name": "Schweinske", "opening_hours": "Mo 08:00-23:00; Tu-Th 08:00-24:00; Fr 08:00-01:00; Sa 09:00-01:00; PH,Su 09:00-23:00", "addr:street": "M\u00f6llner Landstra\u00dfe", "addr:postcode": "22111", "website": "https://schweinske.de/restaurants/schweinske-billstedt/", "addr:housenumber": "2", "wheelchair": "limited", "addr:country": "DE", "addr:city": "Hamburg"}}, {"type": "node", "id": 253659932, "lat": 53.5817607, "lon": 10.0633549, "tags": {"addr:city": "Hamburg", "addr:housenumber": "23", "addr:postcode": "22049", "addr:street": "Stra\u00dfburger Stra\u00dfe", "amenity": "restaurant", "cuisine": "greek", "name": "Taverna Metaxa", "opening_hours": "Mo-Sa 16:00-22:00; PH,Su 12:00-21:00", "phone": "+49406952159", "toilets:wheelchair": "no", "wheelchair": "limited"}}, {"type": "node", "id": 254446740, "lat": 53.6696493, "lon": 10.1429076, "tags": {"addr:city": "Hamburg", "addr:housenumber": "188", "addr:postcode": "22359", "addr:street": "Volksdorfer Damm", "amenity": "restaurant", "name": "La Ruccola", "opening_hours": "Tu-Sa 12:00-15:00,17:30-22:00; Su,PH 12:00-22:00", "toilets:wheelchair": "no", "wheelchair": "yes"}}, {"type": "node", "id": 256044321, "lat": 53.5505247, "lon": 9.9810318, "tags": {"wheelchair": "limited", "website": "http://paulaners-hamburg.de/", "smoking": "outside", "addr:city": "Hamburg", "addr:country": "DE", "addr:housenumber": "1", "addr:postcode": "20459", "addr:street": "Gro\u00dfneumarkt", "amenity": "restaurant", "cuisine": "german", "email": "info@paulaners-hamburg.de", "fax": "+49 40 63607903", "name": "Paulaner's", "operator": "Jan-Hendrik Schr\u00f6der", "phone": "+49 40 63607900"}}, {"type": "node", "id": 258521580, "lat": 53.5636292, "lon": 10.0333115, "tags": {"wheelchair": "yes", "toilets:wheelchair": "no", "addr:city": "Hamburg", "addr:housenumber": "133", "addr:postcode": "22087", "addr:street": "L\u00fcbecker Stra\u00dfe", "amenity": "restaurant", "name": "Zappzarapp"}}, {"type": "node", "id": 258521618, "lat": 53.5610317, "lon": 10.0312569, "tags": {"takeaway": "yes", "phone": "+49 40 2507775", "amenity": "restaurant", "addr:street": "L\u00fcbecker Stra\u00dfe", "name": "Schweinske", "opening_hours": "Mo-Fr 08:00-24:00; Sa-Su 09:00-24:00", "addr:postcode": "22087", "addr:housenumber": "84", "addr:country": "DE", "website": "http://www.Schweinske.de", "addr:city": "Hamburg", "wheelchair": "limited"}}, {"type": "node", "id": 258527808, "lat": 53.5715814, "lon": 10.0699098, "tags": {"opening_hours": "Mo-Sa 11:30-24:00, Su 11:30-23:00", "addr:city": "Hamburg", "addr:country": "DE", "addr:housenumber": "48", "addr:postcode": "22041", "addr:street": "Schlo\u00dfstra\u00dfe", "amenity": "restaurant", "name": "Blockhouse Wandsbek", "toilets:wheelchair": "yes", "wheelchair": "yes"}}, {"type": "node", "id": 258962008, "lat": 53.5857798, "lon": 10.0449119, "tags": {"wheelchair": "yes", "website": "http://luettliv.de/", "name": "L\u00fcttLiv", "amenity": "restaurant"}}, {"type": "node", "id": 261041923, "lat": 53.5850016, "lon": 10.0450945, "tags": {"wheelchair": "yes", "toilets:wheelchair": "yes", "opening_hours": "Mo-Th 11:00-24:00, Fr 11:00+, Sa 09:30+, Su 09:30-23:00", "name": "T.R.U.D.E.", "amenity": "restaurant", "addr:street": "Maurienstra\u00dfe", "addr:postcode": "22305", "addr:housenumber": "13", "phone": "+494020006931", "website": "http://trude-hh.de"}}, {"type": "node", "id": 262810561, "lat": 53.7107069, "lon": 9.7107346}, {"type": "node", "id": 262810563, "lat": 53.7107924, "lon": 9.7108184}, {"type": "node", "id": 262810564, "lat": 53.7108871, "lon": 9.7109116}, {"type": "node", "id": 262810565, "lat": 53.7109436, "lon": 9.7112044}, {"type": "node", "id": 262810566, "lat": 53.7108117, "lon": 9.7112772}, {"type": "node", "id": 263906880, "lat": 53.6953737, "lon": 9.8510433, "tags": {"amenity": "restaurant", "name": "Zur Wulfsm\u00fchle"}}, {"type": "node", "id": 263923823, "lat": 53.5355189, "lon": 9.879001, "tags": {"addr:city": "Hamburg", "addr:country": "DE", "addr:housenumber": "9", "addr:postcode": "21129", "addr:street": "Benittstra\u00dfe", "amenity": "restaurant", "name": "Landungsbr\u00fccke Finkenwerder", "opening_hours": "11:00+", "phone": "+49 40 7425151", "website": "http://www.finkenwerder-landungsbruecke.de/", "wheelchair": "limited"}}, {"type": "node", "id": 266003722, "lat": 53.5711937, "lon": 9.6934113, "tags": {"amenity": "restaurant", "cuisine": "regional;fish", "name": "Elbe1", "website": "https://www.elbe1.com/", "wheelchair": "yes"}}, {"type": "node", "id": 266573365, "lat": 53.5700194, "lon": 10.0768267, "tags": {"opening_hours": "Mo-Th 15:00+, Fr-Su 12:00+", "amenity": "restaurant", "contact:email": "info@wirtshaus-wandsbek.de", "contact:facebook": "https://www.facebook.com/wirtshaus.wandsbek", "contact:phone": "+49 40 697984311", "contact:website": "https://www.wirtshaus-wandsbek.de", "cuisine": "bavarian", "diet:vegetarian": "yes", "name": "Coopers Wirtshaus Wandsbek", "operator": "Coopers Wandsbek GmbH", "outdoor_seating": "yes", "reservation": "yes", "wheelchair": "no"}}, {"type": "node", "id": 266655533, "lat": 53.5725907, "lon": 9.8552047, "tags": {"entrance": "main"}}, {"type": "node", "id": 266671332, "lat": 53.5749593, "lon": 9.8472885, "tags": {"amenity": "restaurant", "cuisine": "greek", "name": "Olympiade", "wheelchair": "limited"}}, {"type": "node", "id": 267622930, "lat": 53.549477, "lon": 9.9274846, "tags": {"cuisine": "italian", "name": "Cuore Mio", "phone": "+494039906029", "website": "http://www.cuoremio.de", "wheelchair": "no", "amenity": "restaurant", "addr:street": "Rothestra\u00dfe", "addr:postcode": "22765", "addr:city": "Hamburg", "addr:country": "DE", "addr:housenumber": "38"}}, {"type": "node", "id": 267623160, "lat": 53.5475906, "lon": 9.9292942, "tags": {"opening_hours": "Mo-Fr 12:00-15:00; Mo-Sa 18:00-23:30", "name": "Trattoria Toscana", "website": "http://www.trattoria-toscana.hamburg", "cuisine": "italian", "amenity": "restaurant", "addr:street": "Holl\u00e4ndische Reihe", "addr:city": "Hamburg", "addr:country": "DE", "addr:housenumber": "25", "addr:postcode": "22765"}}, {"type": "node", "id": 267626221, "lat": 53.5609328, "lon": 9.9630932, "tags": {"addr:city": "Hamburg", "addr:country": "DE", "addr:housenumber": "36", "addr:postcode": "20357", "addr:street": "Schulterblatt", "amenity": "restaurant", "cuisine": "greek", "name": "Olympisches Feuer", "opening_hours": "Mo-Su 12:00-02:00", "phone": "+49 40 435597", "toilets:wheelchair": "yes", "website": "http://www.olympisches-feuer.de/", "wheelchair": "yes"}}, {"type": "node", "id": 269140727, "lat": 53.6639034, "lon": 9.905742, "tags": {"wheelchair": "no", "opening_hours": "Mo,We-Sa 11:30-15:00,17:30-20:30; Tu off", "addr:city": "B\u00f6nningstedt", "addr:housenumber": "2", "addr:postcode": "25474", "addr:street": "Bahnhofstra\u00dfe", "amenity": "restaurant", "cuisine": "chinese", "website": "https://www.china-restaurant-boenningstedt.de/", "email": "info@china-restaurant-boenningstedt.de", "name": "China Restaurant B\u00f6nningstedt", "phone": "+49 40 55 66 848"}}, {"type": "node", "id": 270633725, "lat": 53.6841687, "lon": 9.6699799, "tags": {"addr:housenumber": "10", "addr:street": "Berliner Stra\u00dfe", "amenity": "restaurant", "cuisine": "international", "name": "Restaurant Parkhotel Rosarium", "smoking": "outside", "tourism": "hotel", "wheelchair": "yes"}}, {"type": "node", "id": 270894567, "lat": 53.6843121, "lon": 9.6630694, "tags": {"cuisine": "asian", "name": "Asia Garden", "wheelchair": "limited", "amenity": "restaurant"}}, {"type": "node", "id": 270894669, "lat": 53.6803525, "lon": 9.67366, "tags": {"amenity": "restaurant", "cuisine": "italian", "name": "Briolet", "wheelchair": "limited"}}, {"type": "node", "id": 270894861, "lat": 53.6860468, "lon": 9.6716829, "tags": {"addr:city": "Uetersen", "addr:housenumber": "60", "addr:postcode": "25436", "addr:street": "Kleiner Sand", "amenity": "restaurant", "name": "von Stamm", "toilets:wheelchair": "no", "wheelchair": "limited"}}, {"type": "node", "id": 270894877, "lat": 53.680539, "lon": 9.6797118, "tags": {"amenity": "restaurant", "cuisine": "italian", "name": "Casa Rossa", "wheelchair": "limited"}}, {"type": "node", "id": 270901000, "lat": 53.6603171, "lon": 9.7385467, "tags": {"amenity": "restaurant", "wheelchair": "yes"}}, {"type": "node", "id": 271393344, "lat": 53.5351344, "lon": 10.0415824, "tags": {"addr:city": "Hamburg", "addr:country": "DE", "addr:housenumber": "74", "addr:postcode": "20539", "addr:street": "Marckmannstra\u00dfe", "amenity": "restaurant", "name": "Blaue Adria", "opening_hours": "Tu-Su 11:00-23:00", "wheelchair": "yes"}}, {"type": "node", "id": 272610100, "lat": 53.5706164, "lon": 9.9183596, "tags": {"amenity": "restaurant", "diet:vegetarian": "no", "wheelchair": "limited", "name": "Rach & Ritchy", "opening_hours": "Mo-Fr 12:00-14:00,18:30-24:00; Sa 17:30-24:00", "phone": "+49 40 89726170", "website": "https://rach-ritchy.de/", "addr:city": "Hamburg", "addr:country": "DE", "addr:housenumber": "71", "addr:postcode": "22525", "addr:street": "Holstenkamp"}}, {"type": "node", "id": 272717405, "lat": 53.5439736, "lon": 9.8415381, "tags": {"amenity": "restaurant", "name": "Casino", "wheelchair": "yes"}}, {"type": "node", "id": 272717465, "lat": 53.5424727, "lon": 9.8440744, "tags": {"amenity": "restaurant", "name": "March\u00e9", "opening_hours": "Mo-Fr 11:00-14:00", "wheelchair": "yes"}}, {"type": "node", "id": 272719780, "lat": 53.5447527, "lon": 9.8383286, "tags": {"amenity": "restaurant", "name": "Kantine", "wheelchair": "yes"}}, {"type": "node", "id": 272723510, "lat": 53.5418369, "lon": 9.8374524, "tags": {"amenity": "restaurant", "name": "Bistro", "wheelchair": "yes"}}, {"type": "node", "id": 272724228, "lat": 53.5448273, "lon": 9.8248547, "tags": {"amenity": "restaurant", "wheelchair": "yes", "name": "Cuisine"}}, {"type": "node", "id": 273425544, "lat": 53.5795123, "lon": 9.7275569, "tags": {"amenity": "restaurant", "cuisine": "greek", "name": "Messologi"}}, {"type": "node", "id": 274262342, "lat": 53.5028763, "lon": 10.1930725, "tags": {"website": "https://www.rindocks.de/standort/bergedorf.html", "addr:city": "Hamburg", "addr:housenumber": "119", "addr:postcode": "21031", "addr:street": "Lohbr\u00fcgger Landstra\u00dfe", "amenity": "restaurant", "cuisine": "steak_house", "name": "Rindock's"}}, {"type": "node", "id": 274349224, "lat": 53.5557185, "lon": 9.9916858, "tags": {"addr:city": "Hamburg", "addr:country": "DE", "addr:housenumber": "9-14", "addr:postcode": "20354", "addr:street": "Neuer Jungfernstieg", "amenity": "restaurant", "name": "Haerlin", "opening_hours": "Tu-Sa 18:30-21:30", "phone": "+49 40 34943310", "stars": "2", "website": "https://www.restaurant-haerlin.de", "wheelchair": "yes"}}, {"type": "node", "id": 274490591, "lat": 53.4717539, "lon": 9.8631619, "tags": {"opening_hours": "12:00-15:00,17:00-22:00", "addr:city": "Hamburg", "addr:housenumber": "292", "addr:postcode": "21149", "addr:street": "Cuxhavener Stra\u00dfe", "amenity": "restaurant", "cuisine": "mediterranean", "name": "Merrano", "smoking": "no", "takeaway": "no", "website": "http://www.merrano.de/"}}, {"type": "node", "id": 274850436, "lat": 53.5448054, "lon": 10.023296, "tags": {"amenity": "restaurant", "name": "Essino", "wheelchair": "yes"}}, {"type": "node", "id": 274850444, "lat": 53.5451203, "lon": 10.0286441, "tags": {"smoking": "no", "addr:city": "Hamburg", "addr:country": "DE", "addr:housenumber": "79", "addr:postcode": "20097", "addr:street": "S\u00fcderstra\u00dfe", "amenity": "restaurant", "contact:website": "http://www.feinbeisser-lounge.de/", "name": "Feinbeisser Lounge"}}, {"type": "node", "id": 274951874, "lat": 53.469024, "lon": 10.2778372, "tags": {"amenity": "restaurant", "cuisine": "arab", "name": "Najis Mittelmeer Bahnhof", "toilets:wheelchair": "no", "wheelchair": "yes"}}, {"type": "node", "id": 276226167, "lat": 53.6475506, "lon": 9.9078916, "tags": {"entrance": "main"}}, {"type": "node", "id": 276908852, "lat": 53.6624194, "lon": 9.7969062, "tags": {"name": "The Opposti", "wheelchair": "no", "addr:city": "Pinneberg", "addr:housenumber": "8a", "addr:postcode": "25421", "addr:street": "Bismarckstra\u00dfe", "amenity": "restaurant", "check_date": "2012-06-28", "cuisine": "pizza;burger;pasta", "toilets:wheelchair": "no"}}, {"type": "node", "id": 277050398, "lat": 53.5514359, "lon": 9.9809243, "tags": {"addr:housenumber": "27", "addr:street": "Br\u00fcderstra\u00dfe", "amenity": "restaurant", "diet:vegetarian": "only", "name": "Picolo Paradiso", "opening_hours": "Tu-Fr 18:00-23:00,12:00-15:00; Sa 18:00-23:00", "website": "http://www.piccolo-paradiso.de"}}, {"type": "node", "id": 277504583, "lat": 53.5447491, "lon": 10.0895845, "tags": {"opening_hours": "Tu-Sa 11:30-14:30,17:30-23:30; PH,Su 11:30-21:00", "name": "Restaurant Adria", "addr:city": "Hamburg", "addr:country": "DE", "addr:housenumber": "21", "addr:postcode": "22111", "addr:street": "Letzter Heller", "amenity": "restaurant", "contact:phone": "+49 40 7323582", "contact:website": "http://www.adria-horn.de/", "cuisine": "croatian"}}, {"type": "node", "id": 277790194, "lat": 53.5966915, "lon": 10.0435393, "tags": {"wheelchair": "yes", "addr:city": "Hamburg", "addr:housenumber": "236", "addr:postcode": "22307", "addr:street": "Fuhlsb\u00fcttler Stra\u00dfe", "amenity": "restaurant", "name": "Orchideen Palast", "note": "chinese", "opening_hours": "Mo-Su 11:30-22:30", "phone": "+49 40 690 33 88", "website": "http://www.orchideen-palast.com"}}, {"type": "node", "id": 277800972, "lat": 53.6496648, "lon": 10.1176109, "tags": {"website": "http://www.maurizio-ristorante.de/", "addr:city": "Hamburg", "addr:country": "DE", "addr:housenumber": "31", "addr:postcode": "22393", "addr:street": "Berner Weg", "amenity": "restaurant", "cuisine": "italian", "email": "info@maurizio-ristorante.de", "name": "Maurizio", "opening_hours": "Tu-Fr 12:00-15:00,18:00-22:00; Sa 17:00-22:00; Su 12:00-15:00,17:00-22:00", "opening_hours:covid19": "Tu-Su 17:00-21:00", "operator": "Maurizio Murtas", "phone": "+49 40 24437850", "smoking": "outside"}}, {"type": "node", "id": 278487889, "lat": 53.5977846, "lon": 10.0428499, "tags": {"wheelchair": "no", "website": "http://www.taverna-kamiros.de", "addr:city": "Hamburg", "addr:country": "DE", "addr:housenumber": "256", "addr:postcode": "22307", "addr:street": "Fuhlsb\u00fcttler Stra\u00dfe", "amenity": "restaurant", "name": "Kamiros", "note": "Greek", "opening_hours": "Mo-Sa 16:00-24:00; Su 12:00-24:00", "phone": "+4940617683"}}, {"type": "node", "id": 278846978, "lat": 53.5330857, "lon": 10.0914476, "tags": {"amenity": "restaurant", "cuisine": "portuguese", "name": "Oliveira"}}, {"type": "node", "id": 279243507, "lat": 53.5792529, "lon": 9.7048926, "tags": {"addr:city": "Wedel", "addr:housenumber": "3a", "addr:postcode": "22880", "addr:street": "Beim Hoophof", "amenity": "restaurant", "cuisine": "asian", "name": "ToGao", "opening_hours": "11:30-22:00", "outdoor_seating": "yes", "takeaway": "yes", "website": "http://togao.de", "wheelchair": "yes"}}, {"type": "node", "id": 279243510, "lat": 53.5810493, "lon": 9.7030943, "tags": {"name": "Da Salvatore", "wheelchair": "no", "addr:city": "Wedel", "addr:country": "DE", "addr:housenumber": "4", "addr:postcode": "22880", "addr:street": "Rathausplatz", "amenity": "restaurant", "cuisine": "italian", "phone": "+49 4103 3208", "takeaway": "yes"}}, {"type": "node", "id": 280206786, "lat": 53.5816386, "lon": 9.7041492, "tags": {"addr:city": "Wedel", "addr:country": "DE", "addr:housenumber": "1", "addr:postcode": "22880", "addr:street": "Rathausplatz", "amenity": "restaurant", "name": "Holsteiner", "opening_hours": "24/7", "wheelchair": "yes"}}, {"type": "node", "id": 280207013, "lat": 53.5807864, "lon": 9.8847447}, {"type": "node", "id": 280207014, "lat": 53.5808983, "lon": 9.8849426}, {"type": "node", "id": 280207015, "lat": 53.5808947, "lon": 9.8849475}, {"type": "node", "id": 280207016, "lat": 53.5809115, "lon": 9.8849815}, {"type": "node", "id": 280207017, "lat": 53.5808581, "lon": 9.8850558}, {"type": "node", "id": 280207018, "lat": 53.5807382, "lon": 9.8848118}, {"type": "node", "id": 280699564, "lat": 53.5610678, "lon": 9.9675684, "tags": {"wheelchair": "no", "addr:city": "Hamburg", "addr:country": "DE", "addr:housenumber": "98", "addr:postcode": "20357", "addr:street": "Sternstra\u00dfe", "amenity": "restaurant", "cuisine": "german", "delivery": "yes", "name": "Erika's Eck", "opening_hours": "Mo-Fr 00:00-14:00,17:00-24:00; Sa-Su 00:00-09:00,17:00-24:00; PH 00:00-09:00,17:00-24:00", "phone": "+49 40 433545", "takeaway": "yes", "toilets:wheelchair": "no", "website": "http://www.erikas-eck.de"}}, {"type": "node", "id": 280699565, "lat": 53.5589306, "lon": 9.9645671, "tags": {"wheelchair": "no", "addr:city": "Hamburg", "addr:country": "DE", "addr:housenumber": "16", "addr:postcode": "20359", "addr:street": "Neuer Pferdemarkt", "amenity": "restaurant", "cuisine": "seafood", "name": "La Sepia", "phone": "+49 40 43 22 484", "website": "https://la-sepia.de"}}, {"type": "node", "id": 280702772, "lat": 53.5624282, "lon": 9.9634528, "tags": {"wheelchair": "limited", "website": "https://restaurantpamukkale.de", "addr:city": "Hamburg", "addr:country": "DE", "addr:housenumber": "35", "addr:postcode": "20357", "addr:street": "Susannenstra\u00dfe", "amenity": "restaurant", "cuisine": "turkish", "email": "info@pamukkalerestaurant.de", "name": "Pamukkale K\u00f6z", "opening_hours": "Mo,Th,Su 09:00-00:30; Fr,Sa 09:00-05:00", "phone": "+49 40 4302411", "toilets:wheelchair": "no"}}, {"type": "node", "id": 280702922, "lat": 53.5617024, "lon": 9.9648113, "tags": {"wheelchair": "no", "addr:city": "Hamburg", "addr:country": "DE", "addr:housenumber": "21", "addr:postcode": "20357", "addr:street": "Bartelsstra\u00dfe", "amenity": "restaurant", "name": "Souperia", "source": "knowledge", "toilets:wheelchair": "no"}}, {"type": "node", "id": 280702925, "lat": 53.5536802, "lon": 9.9301419, "tags": {"toilets:wheelchair": "yes", "addr:city": "Hamburg", "addr:country": "DE", "addr:housenumber": "24", "addr:postcode": "22765", "addr:street": "Kleine Rainstra\u00dfe", "addr:suburb": "Altona", "amenity": "restaurant", "bettundbike": "yes", "description": "Hotel restaurant, lunch (and breakfast for guests) only", "diet:vegan": "yes", "internet_access": "hamburg.freifunk.net", "name": "Schanzenstern Bio-Restaurant", "opening_hours": "Mo-Fr 12:00-16:00", "organic": "only", "phone": "+49 40 4398441", "tourism": "hotel", "website": "https://www.schanzenstern.com/de/altona/mittagstisch-catering/bio-mittagstisch.html#menu-start", "wheelchair": "yes"}}, {"type": "node", "id": 280709540, "lat": 53.5598741, "lon": 9.9634083, "tags": {"opening_hours": "Mo-Fr 12:00-23:00; Sa,Su 13:00-23:00", "wheelchair": "limited", "source": "knowledge", "addr:city": "Hamburg", "addr:country": "DE", "addr:housenumber": "115", "addr:postcode": "22767", "addr:street": "Lerchenstra\u00dfe", "amenity": "restaurant", "cuisine": "sushi", "description": "Sushi, Japanisch, Thail\u00e4ndisch", "name": "Umai", "operator": "Byeng-Gu Khang", "phone": "+49 40 3170 2664"}}, {"type": "node", "id": 280709543, "lat": 53.5593936, "lon": 9.9645183, "tags": {"opening_hours": "12:00+", "addr:city": "Hamburg", "addr:country": "DE", "addr:housenumber": "4", "addr:postcode": "20357", "addr:street": "Schanzenstra\u00dfe", "amenity": "restaurant", "cuisine": "burger", "description": "Burger und Bayrisches aus der Oberpfalz; warmes Essen bis 23:00", "name": "Hatari", "smoking": "no", "source": "knowledge", "website": "http://www.qype.com/place/92066-Hatari-Pfaelzer-Stube-Hamburg", "wheelchair": "no"}}, {"type": "node", "id": 280740265, "lat": 53.5597713, "lon": 9.9639605, "tags": {"wheelchair": "no", "source": "knowledge", "opening_hours": "Mo-Th 12:00-23:00; Fr-Su 12:00-23:00+", "name": "Asia House", "addr:city": "Hamburg", "addr:country": "DE", "addr:housenumber": "10", "addr:postcode": "20357", "addr:street": "Schulterblatt", "amenity": "restaurant"}}, {"type": "node", "id": 280755942, "lat": 53.5823393, "lon": 9.7007437, "tags": {"addr:city": "Wedel", "addr:country": "DE", "addr:housenumber": "28", "addr:postcode": "22880", "addr:street": "M\u00fchlenstra\u00dfe", "amenity": "restaurant", "cuisine": "italian", "description": "closed", "name": "Antichi Sapori Italiani", "wheelchair": "no"}}, {"type": "node", "id": 280755946, "lat": 53.581787, "lon": 9.7012548, "tags": {"amenity": "restaurant", "name": "Die Wasserm\u00fchle", "wheelchair": "limited"}}, {"type": "node", "id": 280756924, "lat": 53.5825311, "lon": 9.7008203, "tags": {"addr:city": "Wedel", "addr:country": "DE", "addr:housenumber": "24", "addr:postcode": "22880", "addr:street": "M\u00fchlenstra\u00dfe", "amenity": "restaurant", "cuisine": "italian", "name": "La Giara", "wheelchair": "no"}}, {"type": "node", "id": 280944537, "lat": 53.6605511, "lon": 9.8012087, "tags": {"wheelchair": "no", "name": "Elena", "amenity": "restaurant"}}, {"type": "node", "id": 282506264, "lat": 53.5013399, "lon": 10.07993, "tags": {"amenity": "restaurant", "cuisine": "thai", "name": "Bamboo", "wheelchair": "limited"}}, {"type": "node", "id": 285129967, "lat": 53.4870244, "lon": 10.0163515, "tags": {"amenity": "restaurant", "cuisine": "german", "name": "Sohre", "tourism": "hotel", "wheelchair": "no"}}, {"type": "node", "id": 286289546, "lat": 53.4581325, "lon": 9.9678368, "tags": {"wheelchair": "no", "website": "http://www.schweinske.info/index.php?id=48", "toilets:wheelchair": "no", "toilets:access": "customers", "toilets": "yes", "takeaway": "no", "smoking": "no", "cuisine": "german", "name": "Schweinske Harburg", "opening_hours": "Mo-Th 09:00-23:00; Fr-Sa 09:00-24:00; PH,Su 09:00-23:00", "operator": "Sadig Ismail & Christoph Stern GbR", "self_service": "yes", "amenity": "restaurant", "changing_table": "no", "diet:vegan": "no", "diet:vegetarian": "yes", "internet_access": "no", "payment:cash": "yes", "payment:cryptocurrencies": "no", "payment:electronic_purses": "no", "payment:girocard": "yes", "phone": "+49 40 776374", "reservation": "yes"}}, {"type": "node", "id": 286450954, "lat": 53.4602015, "lon": 9.9757022, "tags": {"cuisine": "chinese", "name": "Asia Wok", "wheelchair": "no", "amenity": "restaurant", "diet:vegetarian": "yes", "opening_hours": "Tu-Sa 11:00-22:00, Su 12:00-22:00"}}, {"type": "node", "id": 286660842, "lat": 53.5728594, "lon": 10.0635049, "tags": {"amenity": "restaurant", "cuisine": "chinese", "name": "China-Restaurant Ming Dynastie", "opening_hours": "12:00-23:00", "website": "https://www.ming-dynastie.de/", "wheelchair": "limited"}}, {"type": "node", "id": 287998391, "lat": 53.6758487, "lon": 9.6762269, "tags": {"amenity": "restaurant", "cuisine": "german", "name": "Moorreger Hof"}}, {"type": "node", "id": 288116128, "lat": 53.5553304, "lon": 9.9894068, "tags": {"amenity": "restaurant", "cuisine": "steak_house", "name": "Block House", "opening_hours": "Mo-Sa 11:30-24:00, Su 11:30-23:00", "wheelchair": "yes"}}, {"type": "node", "id": 288232730, "lat": 53.5655088, "lon": 9.9856214}, {"type": "node", "id": 288309624, "lat": 53.565001, "lon": 9.9869465, "tags": {"addr:city": "Hamburg", "addr:housenumber": "12", "addr:street": "Schl\u00fcterstra\u00dfe", "amenity": "restaurant", "cuisine": "italian", "diet:vegetarian": "yes", "name": "Gran Sasso", "opening_hours": "Mo-Sa 11:30-23:00, Su 17:00-22:00", "wheelchair": "no"}}, {"type": "node", "id": 288513234, "lat": 53.4179925, "lon": 10.1986781, "tags": {"amenity": "restaurant", "name": "Sch\u00fcmann's Gasthaus", "wheelchair": "limited"}}, {"type": "node", "id": 288794107, "lat": 53.437008, "lon": 10.0042944, "tags": {"addr:city": "Hamburg", "addr:housenumber": "15", "addr:postcode": "21079", "addr:street": "K\u00fcstersweg", "amenity": "restaurant", "name": "R\u00f6nneburger Park", "opening_hours": "Mo 17:00-23:00; We-Sa 17:00-23:00; Su 12:00-23:00", "toilets:wheelchair": "no", "wheelchair": "yes"}}, {"type": "node", "id": 288858596, "lat": 53.5734328, "lon": 10.0705985, "tags": {"addr:city": "Hamburg", "addr:country": "DE", "addr:housenumber": "141", "addr:postcode": "22041", "addr:street": "Wandsbeker Marktstra\u00dfe", "amenity": "restaurant", "cuisine": "japanese", "name": "Jam Jam", "opening_hours": "Mo-Fr 12:00-15:30,17:30-23:00; Sa 12:00-23:00; PH,Su 16:00-23:00", "phone": "+49 40 88155998", "toilets:wheelchair": "no", "wheelchair": "yes"}}, {"type": "node", "id": 289296176, "lat": 53.5752095, "lon": 10.0744829, "tags": {"addr:city": "Hamburg", "addr:housenumber": "25-29", "addr:postcode": "22041", "addr:street": "Wandsbeker Zollstra\u00dfe", "amenity": "restaurant", "cuisine": "chinese", "email": "info@ni-hao.de", "internet_access": "wlan", "internet_access:fee": "yes", "name": "Ni Hao", "opening_hours": "12:00-23:00", "outdoor_seating": "yes", "payment:american_express": "yes", "payment:cash": "yes", "payment:girocard": "yes", "payment:maestro": "yes", "payment:mastercard": "yes", "payment:visa": "yes", "phone": "+49 40 6520888", "smoking": "outside", "website": "http://www.ni-hao.de", "wheelchair": "yes"}}, {"type": "node", "id": 289296201, "lat": 53.5754515, "lon": 10.0751321, "tags": {"addr:city": "Hamburg", "addr:housenumber": "25-29", "addr:postcode": "22041", "addr:street": "Wandsbeker Zollstra\u00dfe", "amenity": "restaurant", "contact:email": "info@rodizio-rio.de", "contact:fax": "+49 40 88 30 58 86", "contact:phone": "+49 40 76 08 08 78", "contact:website": "https://rodizio-rio.de", "cuisine": "brazilian", "diet:vegetarian": "yes", "name": "Rodizio Rio", "opening_hours": "Su-Th 12:00-24:00, Fr 12:00-01:00, Sa 16:00-01:00"}}, {"type": "node", "id": 289296368, "lat": 53.5753122, "lon": 10.0747646, "tags": {"addr:city": "Hamburg", "addr:housenumber": "25-29", "addr:postcode": "22041", "addr:street": "Wandsbeker Zollstra\u00dfe", "amenity": "restaurant", "cuisine": "portuguese;spanish", "email": "moreira-elpulpo@hotmail.de", "fax": "+49 40 68913009", "name": "El Pulpo", "opening_hours": "PH,Su-Th 12:00-23:00; Fr,Sa 12:00-24:00; Mo-Sa 12:00-16:00", "operator": "Jos\u00e9 de Cintra Moreira", "phone": "+49 40 680625", "takeaway": "yes", "website": "http://www.elpulpo.de", "wheelchair": "limited"}}, {"type": "node", "id": 290079059, "lat": 53.5585523, "lon": 9.9751236, "tags": {"addr:city": "Hamburg", "addr:country": "DE", "addr:housenumber": "14", "addr:postcode": "20357", "addr:street": "Marktstra\u00dfe", "amenity": "restaurant", "capacity": "50", "cuisine": "burger", "delivery": "no", "name": "Peacetanbul", "opening_hours": "Tu-Th 12:00-24:00, Fr 12:00-02:00, Sa 13:00-02:00, Su 13:00-24:00", "phone": "+49 40 59458777", "smoking": "no", "takeaway": "yes", "toilets:wheelchair": "no", "website": "https://peacetanbul.com/", "wheelchair": "limited"}}, {"type": "node", "id": 290079105, "lat": 53.5591638, "lon": 9.975182, "tags": {"wheelchair": "no", "website": "http://www.restaurant-variable.de/", "payment:visa": "yes", "payment:notes": "yes", "payment:credit_cards": "yes", "addr:city": "Hamburg", "addr:housenumber": "23", "addr:postcode": "20357", "addr:street": "Karolinenstra\u00dfe", "amenity": "restaurant", "cuisine": "pizza;pasta", "name": "Variable", "opening_hours": "Mo-Su 12:00-24:00", "payment:coins": "yes"}}, {"type": "node", "id": 290337463, "lat": 53.4823142, "lon": 9.9296654, "tags": {"alt_name": "Sch\u00fctzenhof im alten Moorkathen", "amenity": "restaurant", "contact:email": "email@moorkathen.de", "contact:phone": "+49 151 50354878", "contact:website": "http://moorkathen.de/", "cuisine": "german", "name": "Moorkathen", "opening_hours": "\"Nach Vereinbarung\"", "reservation": "required"}}, {"type": "node", "id": 290608315, "lat": 53.5572346, "lon": 10.0525774, "tags": {"opening_hours": "Tu-Sa 16:30-23:30, Su 12:00-23:30", "addr:city": "Hamburg", "addr:country": "DE", "addr:housenumber": "124", "addr:postcode": "20535", "addr:street": "Carl-Petersen-Stra\u00dfe", "amenity": "restaurant", "cuisine": "greek", "name": "Inos", "wheelchair": "no"}}, {"type": "node", "id": 290882535, "lat": 53.7028854, "lon": 9.7143987, "tags": {"wheelchair": "yes", "website": "https://himara.de/", "addr:city": "Tornesch", "addr:country": "DE", "addr:housenumber": "60c", "addr:postcode": "25436", "addr:street": "Norderstra\u00dfe", "amenity": "restaurant", "cuisine": "greek", "email": "info@himara.de", "name": "Himara", "old_name": "Balkan", "opening_hours": "Tu-Sa 17:00-23:00; Su 12:00-22:00; Mo off", "outdoor_seating": "yes", "phone": "+49 4122 98 31 0 49", "smoking": "outside"}}, {"type": "node", "id": 291167508, "lat": 53.5579557, "lon": 9.9674188, "tags": {"wheelchair:description": "only accesible toilet in the area!?", "wheelchair": "yes", "addr:city": "Hamburg", "addr:country": "DE", "addr:housenumber": "2", "addr:postcode": "20357", "addr:street": "Sternstra\u00dfe", "amenity": "restaurant", "diet:vegan": "yes", "diet:vegetarian": "yes", "name": "Feldstern", "toilets:wheelchair": "yes"}}, {"type": "node", "id": 291332446, "lat": 53.6855222, "lon": 9.6792757, "tags": {"amenity": "restaurant", "name": "Roses", "wheelchair": "limited"}}, {"type": "node", "id": 291362267, "lat": 53.6870924, "lon": 9.6797644, "tags": {"amenity": "restaurant", "name": "Tennisst\u00fcbchen"}}, {"type": "node", "id": 291369189, "lat": 53.6825377, "lon": 9.6810307, "tags": {"amenity": "restaurant", "cuisine": "german", "name": "Uetersener Stuuw", "wheelchair": "limited"}}, {"type": "node", "id": 291595166, "lat": 53.7013136, "lon": 9.7038395, "tags": {"amenity": "restaurant", "name": "Gambrinus", "wheelchair": "yes"}}, {"type": "node", "id": 291595910, "lat": 53.5926808, "lon": 9.7459264, "tags": {"wheelchair": "limited", "addr:city": "Wedel", "addr:housenumber": "123", "addr:postcode": "22880", "addr:street": "Egenb\u00fcttelweg", "amenity": "restaurant", "cuisine": "italian", "email": "mail@restaurant-kdw.de", "name": "KDW", "opening_hours": "Mo-Su 18:00-23:00", "phone": "+49 4103 9052080", "website": "https://www.restaurant-kdw.de/"}}, {"type": "node", "id": 291604875, "lat": 53.6966876, "lon": 9.7090544, "tags": {"amenity": "restaurant", "name": "Grillstube Corfu", "wheelchair": "limited"}}, {"type": "node", "id": 292087776, "lat": 53.5841966, "lon": 9.6975027}, {"type": "node", "id": 292087777, "lat": 53.5841404, "lon": 9.697662}, {"type": "node", "id": 292087778, "lat": 53.5840046, "lon": 9.697526}, {"type": "node", "id": 292087779, "lat": 53.5840608, "lon": 9.6973667}, {"type": "node", "id": 292290707, "lat": 53.5634018, "lon": 9.9813691, "tags": {"wheelchair": "yes", "amenity": "restaurant", "name": "Rosenhof", "opening_hours": "Apr-Aug: Mo-Su 10:00-22:00; Sep 1-Oct 15 10:00-21:00", "phone": "+49 40 343787", "website": "https://www.restaurant-rosenhof.com"}}, {"type": "node", "id": 292313021, "lat": 53.7047842, "lon": 9.6858677, "tags": {"amenity": "restaurant", "cuisine": "german", "name": "Sportlerheim Heidgrabener SV", "opening_hours": "We 09:00-12:00,17:00-19:00"}}, {"type": "node", "id": 292318758, "lat": 53.705658, "lon": 9.6863444, "tags": {"amenity": "restaurant", "cuisine": "greek", "name": "Heidekrug", "sport": "skittles", "wheelchair": "yes"}}, {"type": "node", "id": 292746412, "lat": 53.6437926, "lon": 9.8420958, "tags": {"website": "https://www.marathongrill.de/", "takeaway": "yes", "phone": "+49 4101 25161", "outdoor_seating": "yes", "opening_hours": "Tu-Sa 11:00-22:00; Su,PH 12:00-22:00", "name": "Marathon Grill", "addr:city": "Rellingen", "addr:housenumber": "55", "addr:postcode": "25462", "addr:street": "Hallstra\u00dfe", "amenity": "restaurant", "cuisine": "greek"}}, {"type": "node", "id": 292829392, "lat": 53.5531751, "lon": 9.9311987, "tags": {"wheelchair": "no", "addr:city": "Hamburg", "addr:country": "DE", "addr:housenumber": "23", "addr:postcode": "22765", "addr:street": "Gro\u00dfe Rainstra\u00dfe", "amenity": "restaurant", "name": "Tarifa", "phone": "+49 40 39903529", "website": "http://www.cafe-tarifa.de"}}, {"type": "node", "id": 292856260, "lat": 53.5801832, "lon": 9.9615764, "tags": {"wheelchair": "no", "website": "http://www.mamarosa-hamburg.de/", "addr:city": "Hamburg", "addr:country": "DE", "addr:housenumber": "1 A", "addr:postcode": "20253", "addr:street": "Heckscherstra\u00dfe", "amenity": "restaurant", "cuisine": "italian", "email": "mail@mamarosa-hamburg.de", "entrance": "yes", "name": "Mama Rosa", "official_name": "Mama Rosa - Antipasti-Bar & Restaurant", "opening_hours": "Mo-Fr 12:00-15:00,18:30-22:30; Sa \"after appointment\"; Su off", "phone": "+49 40 43282977"}}, {"type": "node", "id": 293728104, "lat": 53.5729398, "lon": 10.0443965, "tags": {"wheelchair": "yes", "website": "https://taverna-lefkas.beepworld.de/", "phone": "+4940 38671352", "addr:city": "Hamburg", "addr:housenumber": "36", "addr:postcode": "22081", "addr:street": "Von-Essen-Stra\u00dfe", "amenity": "restaurant", "cuisine": "greek", "name": "Taverna Lefkas", "opening_hours": "Mo-Sa 17:00-24:00; Su 12:00-24:00"}}, {"type": "node", "id": 294284887, "lat": 53.6285872, "lon": 9.84558}, {"type": "node", "id": 294284894, "lat": 53.6287411, "lon": 9.8448846}, {"type": "node", "id": 294325610, "lat": 53.6380131, "lon": 9.8424927, "tags": {"addr:city": "Halstenbek", "addr:country": "DE", "addr:housenumber": "3", "addr:postcode": "25469", "addr:street": "B\u00e4ckerstra\u00dfe", "amenity": "restaurant", "cuisine": "greek", "delivery": "no", "email": "info@attika-hotel.de", "fax": "+49 4101 40 64 19", "internet_access": "wlan", "internet_access:fee": "no", "name": "Attika", "outdoor_seating": "yes", "phone": "+49410141331", "smoking": "isolated", "takeaway": "yes", "toilets:wheelchair": "no", "tourism": "hotel", "website": "https://attika-hotel.de/", "wheelchair": "limited"}}, {"type": "node", "id": 294788497, "lat": 53.6807506, "lon": 9.6752914, "tags": {"amenity": "restaurant", "cuisine": "greek", "name": "Akropolis", "toilets:wheelchair": "no", "wheelchair": "limited"}}, {"type": "node", "id": 295309730, "lat": 53.4507444, "lon": 9.9809799, "tags": {"wheelchair": "limited", "website": "https://www.leuchtturm-harburg.de/", "toilets:wheelchair": "yes", "amenity": "restaurant", "name": "Leuchtturm", "opening_hours": "Mo-Su 12:00+", "phone": "+49 40 70299777"}}, {"type": "node", "id": 295407816, "lat": 53.6812875, "lon": 9.6730142, "tags": {"amenity": "restaurant", "name": "Tapas", "tourism": "hotel", "website": "http://www.tapas-uetersen.de/", "wheelchair": "limited"}}, {"type": "node", "id": 296087739, "lat": 53.5595059, "lon": 10.0136866, "tags": {"wheelchair": "yes", "opening_hours": "Mo-Su 11:00+", "toilets:wheelchair": "no", "smoking": "no", "contact:website": "https://www.peterpane.de/gemuetliche-restaurants/restaurant-hamburg-turnhalle", "addr:city": "Hamburg", "addr:country": "DE", "addr:housename": "Turnhalle", "addr:housenumber": "107", "addr:postcode": "20099", "addr:street": "Lange Reihe", "amenity": "restaurant", "brand": "Peter Pane", "brand:wikidata": "Q66084419", "check_date": "2020-09-14", "contact:phone": "+49 40 28008535", "cuisine": "burger", "diet:vegan": "yes", "diet:vegetarian": "yes", "name": "Peter Pane"}}, {"type": "node", "id": 296936722, "lat": 53.5545585, "lon": 9.9861813, "tags": {"addr:housenumber": "46 - 47", "cuisine": "indian", "name": "Shalimar", "phone": "+4940442484", "website": "https://www.shalimar-hamburg.de/", "addr:city": "Hamburg", "addr:country": "DE", "addr:postcode": "20354", "addr:street": "ABC-Stra\u00dfe", "amenity": "restaurant", "wheelchair": "limited"}}, {"type": "node", "id": 297482831, "lat": 53.628747, "lon": 9.8462774}, {"type": "node", "id": 297482832, "lat": 53.629008, "lon": 9.8450351}, {"type": "node", "id": 297482833, "lat": 53.6286816, "lon": 9.8456349}, {"type": "node", "id": 297482834, "lat": 53.6285612, "lon": 9.8461701}, {"type": "node", "id": 297492689, "lat": 53.583719, "lon": 10.1264849, "tags": {"amenity": "restaurant", "name": "Caf\u00e9 del Sol", "opening_hours": "Su-Th 09:00-24:00; Fr-Sa 09:00-01:00", "phone": "+49 40 66857534", "toilets:wheelchair": "yes", "website": "https://www.cafedelsol.de/mein-cafe-del-sol/cafe-del-sol-hamburg/", "wheelchair": "limited"}}, {"type": "node", "id": 298515059, "lat": 53.6247099, "lon": 10.0991764, "tags": {"addr:city": "Hamburg", "addr:country": "DE", "addr:housenumber": "86", "addr:postcode": "22175", "addr:street": "Am St\u00fchm-S\u00fcd", "amenity": "restaurant", "cuisine": "greek", "delivery": "no", "email": "mail@hellas-bramfeld.de", "name": "Hellas", "opening_hours": "Tu-Sa 17:00-23:00; PH,Su 12:00-15:00,17:00-22:00; Mo off", "operator": "Evangelos Trigonis", "outdoor_seating": "yes", "phone": "+49 40 6409546", "reservation": "yes", "smoking": "outside", "takeaway": "yes", "website": "http://www.hellas-bramfeld.de/", "wheelchair": "limited"}}, {"type": "node", "id": 298579408, "lat": 53.6408795, "lon": 10.0366726, "tags": {"addr:city": "Hamburg", "addr:country": "DE", "addr:housenumber": "47", "addr:postcode": "22339", "addr:street": "Hummelsb\u00fcttler Hauptstra\u00dfe", "amenity": "restaurant", "cuisine": "italian", "email": "info@laurora-hamburg.de", "name": "Restaurant L'Aurora", "opening_hours": "Tu-Sa 17:00-23:00, Su 12:00-22:00", "outdoor_seating": "yes", "phone": "+49 40 53 05 46 89", "ref:vatin": "50/164/00760", "smoking": "no", "website": "https://www.laurora-hamburg.de/restaurant-l-aurora", "wheelchair": "no"}}, {"type": "node", "id": 298801385, "lat": 53.6176611, "lon": 10.0734614, "tags": {"wheelchair": "no", "website": "http://www.seehof-hamburg.de", "amenity": "restaurant", "addr:street": "Fabriciusstra\u00dfe", "name": "Seehof", "addr:postcode": "22177", "addr:housenumber": "288"}}, {"type": "node", "id": 300393858, "lat": 53.5744652, "lon": 9.9637627, "tags": {"amenity": "restaurant", "name": "Hardy's", "wheelchair": "no"}}, {"type": "node", "id": 300394130, "lat": 53.5752192, "lon": 9.9662217, "tags": {"cuisine": "mediterranean;tapas", "wheelchair": "no", "amenity": "restaurant", "addr:street": "Bismarckstra\u00dfe", "name": "Viu - soulfood Restaurant", "opening_hours": "Mo off, Tu-Su 18:00-22:30", "organic": "yes", "phone": "+49 40 400235", "addr:postcode": "20259", "addr:housenumber": "60", "addr:city": "Hamburg"}}, {"type": "node", "id": 300394226, "lat": 53.5739733, "lon": 9.9618168, "tags": {"name": "Vesper", "wheelchair": "limited", "amenity": "restaurant", "website": "https://restaurant-vesper.de/"}}, {"type": "node", "id": 300395898, "lat": 53.5657138, "lon": 9.9792639, "tags": {"addr:city": "Hamburg", "addr:country": "DE", "addr:housenumber": "31", "addr:postcode": "20146", "addr:street": "Bundesstra\u00dfe", "amenity": "restaurant", "cuisine": "italian", "diet:vegan": "no", "diet:vegetarian": "yes", "name": "Ristorante Terzetto", "opening_hours": "Mo-Sa 12:00-24:00", "phone": "+49 40 442891", "smoking": "no", "website": "http://www.terzetto.de/", "wheelchair": "yes"}}, {"type": "node", "id": 300548840, "lat": 53.5788707, "lon": 9.9646285, "tags": {"amenity": "restaurant", "wheelchair": "no", "addr:housenumber": "47", "name": "Akropolis", "addr:street": "Mansteinstra\u00dfe", "cuisine": "greek"}}, {"type": "node", "id": 300560627, "lat": 53.5967297, "lon": 9.9326875, "tags": {"website": "https://www.restaurant-charmant.de/", "addr:city": "Hamburg", "addr:housenumber": "102", "addr:postcode": "22527", "addr:street": "Basselweg", "amenity": "restaurant", "diet:vegan": "no", "diet:vegetarian": "yes", "name": "Chamant", "opening_hours": "Tu-Su 17:00-23:00; Su 12:00-15:00", "outdoor_seating": "yes", "phone": "+494054007071"}}, {"type": "node", "id": 300562453, "lat": 53.5994624, "lon": 9.922237, "tags": {"amenity": "restaurant", "cuisine": "greek", "name": "Apollon bei Pano", "wheelchair": "no"}}, {"type": "node", "id": 300595143, "lat": 53.5675449, "lon": 9.9812512, "tags": {"addr:city": "Hamburg", "addr:housenumber": "1", "addr:postcode": "20146", "addr:street": "Grindelhof", "amenity": "restaurant", "delivery": "no", "diet:vegetarian": "yes", "name": "Cup'n Go", "opening_hours": "Mo-Su 10:00-21:00", "outdoor_seating": "yes", "takeaway": "yes", "wheelchair": "yes"}}, {"type": "node", "id": 300595271, "lat": 53.5680394, "lon": 9.9799383, "tags": {"amenity": "restaurant", "cuisine": "pakistani", "diet:vegetarian": "yes", "addr:street": "Grindelallee", "name": "Balutschistan", "phone": "+49 40 41280246", "toilets:wheelchair": "no", "wheelchair": "limited", "addr:postcode": "20146", "addr:housenumber": "91", "addr:city": "Hamburg", "addr:country": "DE"}}, {"type": "node", "id": 300789769, "lat": 53.5852373, "lon": 9.9823162, "tags": {"wheelchair": "no", "opening_hours": "Mo-Fr 11:30-23:00; Sa,Su 12:00-23:00", "name": "Gandhi", "addr:city": "Hamburg", "addr:country": "DE", "addr:housenumber": "6", "addr:postcode": "20249", "addr:street": "Eppendorfer Landstra\u00dfe", "amenity": "restaurant", "contact:phone": "+49 40 46007886", "contact:website": "http://www.gandhi-restaurant.de/", "cuisine": "indian", "diet:vegan": "yes", "diet:vegetarian": "yes"}}, {"type": "node", "id": 301563072, "lat": 53.5843616, "lon": 9.9967808, "tags": {"amenity": "restaurant", "wheelchair": "limited", "toilets:wheelchair": "no"}}, {"type": "node", "id": 301573031, "lat": 53.5444951, "lon": 9.9358863, "tags": {"wheelchair": "no", "addr:city": "Hamburg", "addr:housenumber": "143", "addr:postcode": "22767", "addr:street": "Gro\u00dfe Elbstra\u00dfe", "amenity": "restaurant", "cuisine": "seafood", "email": "info@fischereihafenresturant.de", "fax": "+49 40 3893021", "name": "Fischereihafen Restaurant", "opening_hours": "Su-Th 11:30-22:00; Fr-Sa 11:30-22:30; Dec 24: 11:30-15:00", "operator": "Fischereihafen Restaurant Kowalke Hamburg GmbH & Co. KG", "phone": "+49 40 381816", "toilets:wheelchair": "no", "website": "http://www.fischereihafenrestaurant.de"}}, {"type": "node", "id": 301993961, "lat": 53.5435215, "lon": 9.9789345, "tags": {"wikidata": "Q33189243", "wheelchair": "no", "toilets:wheelchair": "no", "name": "Das Feuerschiff", "amenity": "restaurant", "addr:street": "Vorsetzen", "addr:postcode": "20459", "phone": "+49 40 362553", "website": "https://www.das-feuerschiff.de/", "addr:city": "Hamburg"}}, {"type": "node", "id": 302281521, "lat": 53.5817041, "lon": 10.0939532, "tags": {"addr:city": "Hamburg", "addr:housenumber": "231", "addr:postcode": "22047", "addr:street": "Waldd\u00f6rferstra\u00dfe", "amenity": "restaurant", "cuisine": "burger", "delivery": "yes", "name": "Waldd\u00f6rfer Croque Caf\u00e9", "opening_hours": "Mo-Fr 11:45-15:00, 16:00-21:30; Sa-Su 16:00-21:30", "phone": "+49 40 6958211", "shop": "croque", "takeaway": "yes", "toilets:wheelchair": "no", "website": "http://www.croquegott.de", "wheelchair": "no"}}, {"type": "node", "id": 302672421, "lat": 53.567628, "lon": 9.9818536, "tags": {"addr:city": "Hamburg", "addr:housenumber": "14 a", "addr:postcode": "20146", "addr:street": "Grindelhof", "amenity": "restaurant", "cuisine": "bistro", "diet:vegetarian": "yes", "name": "Abaton Bistro", "opening_hours": "Mo-Fr 09:30-22:00+; Sa,Su 12:00-22:00+", "phone": "+49 40 457771", "wheelchair": "no"}}, {"type": "node", "id": 302713199, "lat": 53.5411869, "lon": 9.992861, "tags": {"wheelchair": "yes", "toilets:wheelchair": "yes", "name": "Sala Thai", "cuisine": "thai", "amenity": "restaurant"}}, {"type": "node", "id": 302714078, "lat": 53.5411613, "lon": 9.992955, "tags": {"amenity": "restaurant", "name": "Surfkitchen", "wheelchair": "limited"}}, {"type": "node", "id": 302717401, "lat": 53.5415387, "lon": 9.9916841, "tags": {"wheelchair": "limited", "disused:amenity": "restaurant", "name": "Wandrahm", "opening_hours": "Mo 11:30-15:00; Tu-Fr 11:30-15:00, 17:00-22:00; Sa 17:30-22:00; Su 11:30-15:00", "phone": "+49 40 31812200", "website": "http://www.wandrahm.de/", "addr:city": "Hamburg", "addr:country": "DE", "addr:housenumber": "13", "addr:postcode": "20457", "addr:street": "Am Kaiserkai", "amenity": "restaurant"}}, {"type": "node", "id": 303345585, "lat": 53.5886409, "lon": 9.8755743, "tags": {"amenity": "restaurant", "name": "Wappenhof Dubrovnik", "opening_hours": "Mo-Sa 12:00-15:00,18:00-23:00, Su 12:00-23:00", "wheelchair": "no"}}, {"type": "node", "id": 303380925, "lat": 53.5685948, "lon": 10.0179007, "tags": {"wheelchair": "limited", "website": "https://www.restaurant-akari.de/", "opening_hours": "Mo,We-Su 18:00-22:00", "addr:city": "Hamburg", "addr:housenumber": "67", "addr:street": "Papenhuder Stra\u00dfe", "amenity": "restaurant", "cuisine": "japanese", "diet:vegetarian": "yes", "name": "Akari"}}, {"type": "node", "id": 303641731, "lat": 53.5741894, "lon": 9.9503409, "tags": {"wheelchair": "no", "opening_hours": "Tu-Fr 12:00-15:00, Mo-Fr 17:00-23:00, Sa,Su 12:00-23:00", "name": "Kim Chi", "cuisine": "korean", "amenity": "restaurant"}}, {"type": "node", "id": 303734750, "lat": 53.5962378, "lon": 9.7461077, "tags": {"wheelchair": "limited", "website": "https://www.kleine-waldschaenke-hamburg.de", "phone": "+49 40 814792", "opening_hours": "We-Mo 11:30-21:00; Tu off", "name": "Kleine Waldsch\u00e4nke", "cuisine": "regional", "addr:city": "Hamburg", "addr:country": "DE", "addr:housenumber": "149", "addr:postcode": "22559", "addr:street": "Sandmoorweg", "addr:suburb": "Rissen", "amenity": "restaurant"}}, {"type": "node", "id": 304013749, "lat": 53.6468514, "lon": 10.0433631, "tags": {"amenity": "restaurant", "name": "Golden Gate", "opening_hours": "Mo 17:00-22:00, Tu-Fr 16:00-22:00, Sa 14:00-22:00, Su 10:00+", "website": "http://www.golden-gate-hamburg.de"}}, {"type": "node", "id": 304199120, "lat": 53.4645122, "lon": 9.982533, "tags": {"amenity": "restaurant", "name": "Hornbachers Goldener Engel", "wheelchair": "no"}}, {"type": "node", "id": 304952730, "lat": 53.6816786, "lon": 9.6705911, "tags": {"amenity": "restaurant", "cuisine": "italian", "name": "Pasta e Pi\u00f9", "wheelchair": "limited"}}, {"type": "node", "id": 304952732, "lat": 53.6823314, "lon": 9.6668288, "tags": {"addr:city": "Uetersen", "addr:housenumber": "24", "addr:postcode": "25436", "addr:street": "Gro\u00dfer Sand", "amenity": "restaurant", "cuisine": "italian", "name": "Ricci's", "phone": "+49 4122 977577", "toilets:wheelchair": "no", "website": "http://www.riccis.de/ricci-s-uetersen", "wheelchair": "no"}}, {"type": "node", "id": 306272557, "lat": 53.5479824, "lon": 10.0308402, "tags": {"wheelchair": "no", "addr:city": "Hamburg", "addr:country": "DE", "addr:housenumber": "120", "addr:postcode": "20537", "addr:street": "Wendenstra\u00dfe", "amenity": "restaurant", "name": "Betriebssportcasino", "opening_hours": "Mo-Fr 11:00-22:00", "phone": "+49 40 23687240", "website": "http://www.bsv-casino.de"}}, {"type": "node", "id": 306526200, "lat": 53.4636244, "lon": 9.9807444, "tags": {"amenity": "restaurant", "cuisine": "italian", "name": "Al Limone", "wheelchair": "no"}}, {"type": "node", "id": 306526211, "lat": 53.4634512, "lon": 9.9814646, "tags": {"takeaway": "yes", "phone": "+49 40 32527895", "opening_hours": "Mo-Su 12:00-23:00", "name": "Shukria Restaurant", "diet:vegetarian": "yes", "website": "http://shukria.de/harburg/", "amenity": "restaurant", "cuisine": "indian;pakistani", "delivery": "no", "diet:vegan": "yes"}}, {"type": "node", "id": 306526215, "lat": 53.4633969, "lon": 9.9816832, "tags": {"amenity": "restaurant", "name": "Bei Fernando", "wheelchair": "no"}}, {"type": "node", "id": 306526222, "lat": 53.4635276, "lon": 9.9806773, "tags": {"amenity": "restaurant", "cuisine": "greek", "addr:street": "L\u00e4mmertwiete", "name": "Nikos", "phone": "+49 40 76757812", "smoking": "no", "wheelchair": "no", "addr:city": "Hamburg", "addr:country": "DE", "addr:housenumber": "9", "addr:postcode": "21073"}}, {"type": "node", "id": 307875902, "lat": 53.5455304, "lon": 9.9976168, "tags": {"addr:city": "Hamburg", "addr:country": "DE", "addr:housenumber": "15", "addr:postcode": "20457", "addr:street": "Alter Wandrahm", "amenity": "restaurant", "cuisine": "regional", "diet:vegan": "yes", "diet:vegetarian": "yes", "name": "Sch\u00f6nes Leben", "opening_hours": "Mo-Fr 11:00-23:00; Sa-Su 10:00-23:00", "phone": "+49 40 1804826820", "toilets:wheelchair": "no", "website": "https://www.schoenes-leben.com/speicherstadt/", "wheelchair": "no"}}, {"type": "node", "id": 307966855, "lat": 53.6620568, "lon": 9.8986984, "tags": {"cuisine": "yugoslav", "wheelchair": "yes", "takeaway": "yes", "smoking": "outside", "outdoor_seating": "yes", "opening_hours": "Tu-Fr 16:00-22:00; Sa,Su,PH 12:00-22:00", "name": "Montenegro bei Sabina", "diet:vegetarian": "yes", "delivery": "no", "amenity": "restaurant"}}, {"type": "node", "id": 308016756, "lat": 53.6661729, "lon": 9.9040216, "tags": {"wheelchair": "limited", "name": "A Vila", "cuisine": "portuguese", "amenity": "restaurant", "opening_hours": "Tu-Sa 16:00-22:00"}}, {"type": "node", "id": 308260850, "lat": 53.5502923, "lon": 9.8428743, "tags": {"amenity": "restaurant", "cuisine": "regional", "lastcheck": "2012-07-06", "name": "Dill sin D\u00f6ns", "wheelchair": "limited"}}, {"type": "node", "id": 308263589, "lat": 53.5586258, "lon": 9.7954504}, {"type": "node", "id": 308608553, "lat": 53.546044, "lon": 9.9537841, "tags": {"addr:city": "Hamburg", "addr:country": "DE", "addr:housenumber": "3", "addr:postcode": "20359", "addr:street": "St. Pauli Fischmarkt", "amenity": "restaurant", "name": "El Tequito"}}, {"type": "node", "id": 308906104, "lat": 53.464057, "lon": 9.9672483, "tags": {"cuisine": "asian;sushi;vegetarian", "wheelchair": "no", "fixme": "\u00d6ffungszeiten/Lieferzeiten pr\u00fcfen", "amenity": "restaurant", "contact:phone": "+49 1514 7213101", "delivery": "Mo-Sa 17:00-22:00, Su 14:00-22:00", "diet:vegetarian": "yes", "level": "0", "name": "Sushi for Friends", "opening_hours": "Mo-Sa 11:30-14:00,17:00-22:00; PH,Su 14:00-22:00", "payment:american_express": "yes", "payment:cash": "yes", "payment:cryptocurrencies": "no", "payment:electronic_purses": "no", "payment:maestro": "yes", "payment:visa": "yes", "smoking": "no", "takeaway": "yes"}}, {"type": "node", "id": 308906495, "lat": 53.4599698, "lon": 9.978589, "tags": {"amenity": "restaurant", "cuisine": "chinese", "name": "Golden City", "opening_hours": "Su-Th 11:30-22:00; PH,Fr,Sa 11:30-22:30", "toilets:access": "customers", "wheelchair": "no"}}, {"type": "node", "id": 308906535, "lat": 53.4602157, "lon": 9.9798036, "tags": {"amenity": "restaurant", "cuisine": "croatian;balkan", "name": "Dubrovnik", "opening_hours:kitchen": "Tu-Su 11:30-20:30", "wheelchair": "yes"}}, {"type": "node", "id": 308907810, "lat": 53.4650249, "lon": 9.9859337, "tags": {"wheelchair": "yes", "toilets:wheelchair": "no", "name": "Silo 16", "cuisine": "italian", "website": "https://www.silo16.com/", "addr:city": "Hamburg", "addr:country": "DE", "addr:housenumber": "16", "addr:postcode": "21079", "addr:street": "Schellerdamm", "amenity": "restaurant"}}, {"type": "node", "id": 308908629, "lat": 53.4664014, "lon": 9.9868724, "tags": {"contact:website": "https://momentodi.com", "phone": "+49 40 76755594", "website": "https://www.momentodi.com/", "addr:city": "Hamburg", "addr:country": "DE", "addr:housenumber": "3", "addr:postcode": "21079", "addr:street": "Veritaskai", "amenity": "restaurant", "check_date": "2020-07-05", "contact:phone": "+49 40 76755594", "cuisine": "italian", "name": "momento di", "opening_hours": "Mo-Fr 12:00-15:00, 17:30-22:00; Sa 17:00-22:00", "wheelchair": "limited"}}, {"type": "node", "id": 308940908, "lat": 53.6872492, "lon": 9.6537063, "tags": {"addr:city": "Uetersen", "addr:housenumber": "56", "addr:postcode": "25436", "addr:street": "M\u00fchlenstra\u00dfe", "amenity": "restaurant", "contact:website": "http://www.zur-erholung-uetersen.de/", "name": "Zur Erholung", "wheelchair": "no"}}, {"type": "node", "id": 309651671, "lat": 53.4619433, "lon": 9.9807446, "tags": {"amenity": "restaurant", "cuisine": "steak_house", "diet:gluten_free": "yes", "diet:lactose_free": "yes", "diet:vegetarian": "yes", "fax": "+49 40 776928", "name": "Block House Harburg", "opening_hours": "Mo-Sa 11:30-24:00, Su 11:30-23:00", "payment:american_express": "yes", "payment:cash": "yes", "payment:cryptocurrencies": "no", "payment:diners_club": "yes", "payment:discover_card": "yes", "payment:girocard": "yes", "payment:maestro": "yes", "payment:mastercard": "yes", "payment:visa": "yes", "phone": "+49 40 772437", "reservation": "recommended", "website": "https://www.block-house.de/restaurants/block-house-restaurants-standorte/block-house-restaurant-details/block-house-harburg/", "wheelchair": "no"}}, {"type": "node", "id": 309652121, "lat": 53.4640686, "lon": 9.9825916, "tags": {"wheelchair": "no", "addr:city": "Hamburg", "addr:housename": "Restaurant Scharf", "addr:housenumber": "2", "addr:postcode": "21079", "addr:street": "Harburger Schlo\u00dfstra\u00dfe", "amenity": "restaurant", "cuisine": "regional", "name": "Restaurant Scharf", "opening_hours": "Mo off; Tu-Fr 12:00-14:30,18:00-22:00; Sa 18:00-22:00; Su 10:00-16:00", "phone": "+49 40 774422", "source": "local_knwoledge", "website": "https://www.restaurant-scharf.de/"}}, {"type": "node", "id": 309744457, "lat": 53.5829187, "lon": 9.9753311, "tags": {"amenity": "restaurant", "cuisine": "spanish", "diet:vegetarian": "no", "name": "Casa de Arag\u00f3n", "opening_hours": "Mo-Su 17:30+", "phone": "+49 40 4202903", "wheelchair": "no"}}, {"type": "node", "id": 309755435, "lat": 53.5252965, "lon": 10.1683713, "tags": {"amenity": "restaurant", "cuisine": "german", "name": "Gasthof Schwarzenbeck", "wheelchair": "limited"}}, {"type": "node", "id": 309757529, "lat": 53.522741, "lon": 10.1649774, "tags": {"amenity": "restaurant", "name": "Weinkontor Retana"}}, {"type": "node", "id": 309757838, "lat": 53.5197144, "lon": 10.1737023, "tags": {"amenity": "restaurant", "created_by": "Potlatch 0.10f", "cuisine": "german", "name": "Zur Havighorster Nesthenne"}}, {"type": "node", "id": 309795393, "lat": 53.5629788, "lon": 9.9187575, "tags": {"source": "survey", "name": "Mangold", "amenity": "restaurant", "website": "https://www.gastwerk.com/", "phone": "+49 40 890620"}}, {"type": "node", "id": 309837584, "lat": 53.4601374, "lon": 9.9793485, "tags": {"addr:city": "Hamburg", "addr:housenumber": "2", "addr:postcode": "21073", "addr:street": "Am Centrumshaus", "amenity": "restaurant", "cuisine": "burger", "delivery": "yes", "name": "Burger Lounge", "opening_hours": "Mo-Fr 11:30-23:00; PH,Sa 13:00-23:00; Su 13:00-23:30", "wheelchair": "limited"}}, {"type": "node", "id": 309839831, "lat": 53.4528603, "lon": 9.9822897, "tags": {"addr:city": "Hamburg", "addr:housenumber": "60", "addr:street": "Maretstra\u00dfe", "addr:suburb": "Harburg", "amenity": "restaurant", "name": "Meson Galicia", "phone": "+49-40-7666315", "website": "http://www.meson-galicia.de/", "wheelchair": "no"}}, {"type": "node", "id": 311931369, "lat": 53.5578894, "lon": 10.0116622, "tags": {"wheelchair": "limited", "opening_hours": "11:30-23:00", "name": "Vasco da Gama", "cuisine": "spanish", "contact:website": "http://www.vasco-da-gama-hamburg.de", "addr:city": "Hamburg", "addr:country": "DE", "addr:housenumber": "67", "addr:postcode": "20099", "addr:street": "Lange Reihe", "amenity": "restaurant", "contact:phone": "+49 40 2803305"}}, {"type": "node", "id": 311932220, "lat": 53.5621481, "lon": 10.0171116, "tags": {"opening_hours": "Tu-Fr 17:00-23:00; Sa 15:00-24:00;Su 15:00-22:00", "wheelchair": "limited", "phone": "+49 40 2803451", "amenity": "restaurant", "name": "Sagners"}}, {"type": "node", "id": 311932375, "lat": 53.5553859, "lon": 10.0088494, "tags": {"addr:city": "Hamburg", "addr:country": "DE", "addr:housenumber": "12a", "addr:postcode": "20099", "addr:street": "Lange Reihe", "amenity": "restaurant", "check_date": "2020-07-28", "contact:phone": "+49 40 243364", "contact:website": "http://casa-romana-ristorante.com", "cuisine": "italian", "name": "Casa Romana", "opening_hours": "Mo-Su 11:30-24:00", "smoking": "no", "wheelchair": "no"}}, {"type": "node", "id": 312744075, "lat": 53.5731964, "lon": 9.8474922, "tags": {"addr:city": "Hamburg", "addr:housenumber": "218", "addr:postcode": "22549", "addr:street": "Osdorfer Landstra\u00dfe", "amenity": "restaurant", "cuisine": "chinese", "name": "Canton", "opening_hours": "Mo-Sa 11:30-23:00", "website": "http://www.canton-restaurant.de", "wheelchair": "limited", "wheelchair:description": "Zugang nur 3 cm Schwelle, Toilette nicht rollstuhlgerecht"}}, {"type": "node", "id": 314879482, "lat": 53.5558052, "lon": 10.0152141, "tags": {"addr:city": "Hamburg", "addr:housenumber": "14", "addr:postcode": "20099", "addr:street": "Danziger Stra\u00dfe", "amenity": "restaurant", "cuisine": "persian", "name": "Iranisches Molana", "opening_hours": "Mo-Su 11:00-24:00", "wheelchair": "limited"}}, {"type": "node", "id": 315107300, "lat": 53.5459198, "lon": 9.9729233, "tags": {"opening_hours": "Mo,We-Fr 17:00-23:00; Sa-Su 12:00-23:00", "amenity": "restaurant", "cuisine": "portuguese;spanish", "name": "Beira Rio", "toilets": "yes", "website": "http://www.beirario.de/", "wheelchair": "no"}}, {"type": "node", "id": 315107896, "lat": 53.550945, "lon": 9.9796445, "tags": {"wheelchair": "limited", "addr:housenumber": "24", "addr:postcode": "20459", "addr:street": "Gro\u00dfneumarkt", "amenity": "restaurant", "cuisine": "steak_house", "name": "Big Bull", "toilets:wheelchair": "no", "website": "http://www.big-bull.de"}}, {"type": "node", "id": 315347446, "lat": 53.5457182, "lon": 9.97505, "tags": {"amenity": "restaurant", "cuisine": "portuguese", "name": "O Pescador", "wheelchair": "no"}}, {"type": "node", "id": 315347450, "lat": 53.5460212, "lon": 9.9752488, "tags": {"amenity": "restaurant", "cuisine": "portuguese", "name": "Ola Lisboa", "wheelchair": "limited"}}, {"type": "node", "id": 315347506, "lat": 53.5457976, "lon": 9.97533, "tags": {"amenity": "restaurant", "cuisine": "portuguese", "name": "Porto", "wheelchair": "limited"}}, {"type": "node", "id": 315347574, "lat": 53.5456541, "lon": 9.9753488, "tags": {"wheelchair": "no", "name": "Casa del Sabor", "cuisine": "portuguese", "opening_hours": "Tu-Fr 17:00-24:00; Sa 12:00-23:00; PH,Su 12:00-22:00", "phone": "+49 40 31768873", "website": "http://www.casa-del-sabor.de/", "addr:city": "Hamburg", "addr:country": "DE", "addr:housenumber": "9", "addr:postcode": "20459", "addr:street": "Reimarusstra\u00dfe", "amenity": "restaurant"}}, {"type": "node", "id": 315348044, "lat": 53.5459028, "lon": 9.975904, "tags": {"addr:city": "Hamburg", "addr:country": "DE", "addr:housenumber": "11", "addr:postcode": "20459", "addr:street": "Ditmar-Koel-Stra\u00dfe", "amenity": "restaurant", "cuisine": "spanish;portuguese", "name": "D. Jose", "opening_hours": "Mo-Th 11:30-24:00; Fr-Sa 11:30-01:00; Su 11:30-24:00", "phone": "+49 40 52015724", "website": "https://www.d-jose.de/", "wheelchair": "no"}}, {"type": "node", "id": 315348295, "lat": 53.5461421, "lon": 9.9758695, "tags": {"amenity": "restaurant", "cuisine": "portuguese", "name": "O Farol", "wheelchair": "no"}}, {"type": "node", "id": 315348357, "lat": 53.5460992, "lon": 9.9756443, "tags": {"amenity": "restaurant", "cuisine": "spanish;portuguese", "name": "Casa Madeira", "wheelchair": "no"}}, {"type": "node", "id": 315348809, "lat": 53.5461603, "lon": 9.9769651, "tags": {"opening_hours": "Mo-Su 12:00-24:00", "addr:city": "Hamburg", "addr:country": "DE", "addr:housenumber": "3", "addr:postcode": "20459", "addr:street": "Ditmar-Koel-Stra\u00dfe", "amenity": "restaurant", "cuisine": "brazilian", "name": "Panthera Rodizio", "phone": "+49 40 3786370", "toilets:wheelchair": "no", "website": "http://panthera-rodizio.de", "wheelchair": "limited"}}, {"type": "node", "id": 315349265, "lat": 53.5458381, "lon": 9.9742866, "tags": {"contact:website": "www.nello-hamburg.de", "wheelchair": "no", "name": "Nello", "amenity": "restaurant", "contact:email": "info@nello-hamburg.de", "contact:phone": "+49 40 32846959", "cuisine": "italian"}}, {"type": "node", "id": 315353424, "lat": 53.5481753, "lon": 9.9779081, "tags": {"amenity": "restaurant", "name": "Old Commercial Room", "wheelchair": "no"}}, {"type": "node", "id": 315969882, "lat": 53.5423093, "lon": 10.168935, "tags": {"amenity": "restaurant", "cuisine": "chinese", "name": "Peking Haus", "opening_hours": "Mo-Sa 11:30-15:00,17:30-22:30; Su,PH 11:30-22:30", "phone": "+49 40 7132826", "website": "https://www.pekinghaus-moelln.de/"}}, {"type": "node", "id": 316506790, "lat": 53.4394769, "lon": 9.9828938, "tags": {"amenity": "restaurant", "cuisine": "greek", "name": "Taverna Korfu"}}, {"type": "node", "id": 318099040, "lat": 53.5550049, "lon": 9.9802903, "tags": {"addr:city": "Hamburg", "addr:country": "DE", "addr:housenumber": "11", "addr:postcode": "20355", "addr:street": "Johannes-Brahms-Platz", "amenity": "restaurant", "cuisine": "italian", "name": "Toto & Malta", "opening_hours": "Mo-Fr 12:00-15:00, 18:00-23:00; Sa 17:00-23:00; Su 13:00-22:30", "website": "http://www.toto-malta.de", "wheelchair": "limited"}}, {"type": "node", "id": 318099227, "lat": 53.5548491, "lon": 9.9800543, "tags": {"wheelchair": "limited", "addr:housenumber": "7", "addr:postcode": "20355", "addr:street": "Johannes-Brahms-Platz", "amenity": "restaurant", "cuisine": "lebanese", "name": "Riads", "opening_hours": "Mo-Fr 12:00-15:00,18:00-24:00; Sa 16:00-24:00; Su 13:00-24:00"}}, {"type": "node", "id": 318106353, "lat": 53.5512754, "lon": 9.9773362, "tags": {"amenity": "restaurant", "name": "Kleinhuis Cafe&Weinstube", "note": "Zum Alten Senator closed", "website": "http://www.kleinhuis-weinstube.de", "wheelchair": "yes"}}, {"type": "node", "id": 318355004, "lat": 53.7055555, "lon": 10.1066278, "tags": {"amenity": "restaurant", "cuisine": "greek", "name": "Taverna Petros & Marietta", "wheelchair": "limited"}}, {"type": "node", "id": 318364231, "lat": 53.7078787, "lon": 10.108119, "tags": {"wheelchair": "yes", "website": "https://www.italia-ristorante.de/", "smoking": "no", "name": "Italia Ristorante", "amenity": "restaurant"}}, {"type": "node", "id": 319216319, "lat": 53.5777979, "lon": 9.9781407, "tags": {"amenity": "restaurant", "cuisine": "steak_house", "wheelchair": "no", "name": "Hopi", "opening_hours": "Tu-Su 16:00-18:00+"}}, {"type": "node", "id": 319735413, "lat": 53.5774823, "lon": 9.9769449, "tags": {"opening_hours": "Su-Th 11:30-24:00, Fr,Sa 11:30-02:00", "amenity": "restaurant", "disused:amenity": "restaurant", "name": "Grindelberger", "outdoor_seating": "yes", "wheelchair": "no"}}, {"type": "node", "id": 319778015, "lat": 53.556689, "lon": 9.9748728, "tags": {"opening_hours": "Su-Th 10:00-24:00, Fr-Sa 10:00+; PH 10:00-24:00", "amenity": "restaurant", "contact:email": "Kontakt@September-HH.de", "contact:phone": "+49 40 437611", "contact:website": "http://www.september-hh.de", "cuisine": "german", "diet:vegetarian": "yes", "internet_access": "wlan", "name": "September", "payment:coins": "yes", "payment:jcb": "yes", "payment:mastercard": "yes", "payment:notes": "yes", "payment:visa": "yes", "payment:visa_electron": "yes", "reservation": "yes", "wheelchair": "no"}}, {"type": "node", "id": 319779633, "lat": 53.5650457, "lon": 9.9775912, "tags": {"addr:city": "Hamburg", "addr:housenumber": "50", "addr:postcode": "20146", "addr:street": "Rentzelstra\u00dfe", "amenity": "restaurant", "cuisine": "lebanese", "name": "Restaurant B\u00e9kaa", "opening_hours": "Mo-Sa 18:00+", "wheelchair": "no"}}, {"type": "node", "id": 321197866, "lat": 53.584592, "lon": 9.9806334, "tags": {"website": "https://www.mama.eu", "phone": "+49 40 24438797", "outdoor_seating": "yes", "wheelchair": "limited", "opening_hours": "Mo-Su 11:30-23:30", "addr:city": "Hamburg", "addr:housenumber": "44", "addr:postcode": "20251", "addr:street": "Lehmweg", "amenity": "restaurant", "cuisine": "italian", "diet:vegan": "yes", "diet:vegetarian": "yes", "name": "Mama Trattoria", "old_name": "Onkel P\u00f6"}}, {"type": "node", "id": 321197892, "lat": 53.5832219, "lon": 9.9799812, "tags": {"addr:city": "Hamburg", "addr:country": "DE", "addr:housenumber": "35", "addr:postcode": "20251", "addr:street": "Lehmweg", "amenity": "restaurant", "contact:phone": "+49 40 4803700", "cuisine": "chinese;asian", "diet:vegetarian": "yes", "name": "Xiao Xiang Garten", "name:zh": "xiao xiang yuan", "opening_hours": "Mo-Su 12:00-23:00", "takeaway": "yes", "wheelchair": "no"}}, {"type": "node", "id": 321263092, "lat": 53.6917994, "lon": 10.0221783}, {"type": "node", "id": 321263128, "lat": 53.6920613, "lon": 10.0218092}, {"type": "node", "id": 321263129, "lat": 53.6921543, "lon": 10.0223414}, {"type": "node", "id": 321590419, "lat": 53.5691285, "lon": 9.7028044}, {"type": "node", "id": 322582203, "lat": 53.562776, "lon": 9.9614866, "tags": {"wheelchair": "limited", "outdoor_seating": "yes", "cuisine": "asian", "name": "mikawa", "opening_hours": "12:00-23:30", "phone": "+49 40 4 30 44 58", "website": "http://www.mikawa.de", "operator": "Chong-Min Han-Moerbeck", "amenity": "restaurant", "addr:street": "Schulterblatt", "addr:city": "Hamburg", "addr:country": "DE", "addr:housenumber": "92", "addr:postcode": "20357"}}, {"type": "node", "id": 322696435, "lat": 53.5822134, "lon": 9.7061694}, {"type": "node", "id": 322696436, "lat": 53.5821445, "lon": 9.7063789}, {"type": "node", "id": 322696437, "lat": 53.5820626, "lon": 9.7063031}, {"type": "node", "id": 322696438, "lat": 53.5820411, "lon": 9.7063564}, {"type": "node", "id": 322696439, "lat": 53.5818955, "lon": 9.7062112}, {"type": "node", "id": 322696440, "lat": 53.5819143, "lon": 9.7061608}, {"type": "node", "id": 322696441, "lat": 53.5818526, "lon": 9.7060978}, {"type": "node", "id": 322696442, "lat": 53.5819243, "lon": 9.7058797}, {"type": "node", "id": 322696443, "lat": 53.5820217, "lon": 9.7059803}, {"type": "node", "id": 322696444, "lat": 53.5820432, "lon": 9.7059285}, {"type": "node", "id": 322696445, "lat": 53.5821575, "lon": 9.7060482}, {"type": "node", "id": 322696446, "lat": 53.58214, "lon": 9.7060992}, {"type": "node", "id": 325963600, "lat": 53.4011878, "lon": 10.1686925, "tags": {"website": "http://www.luettenburg.de/", "amenity": "restaurant", "cuisine": "regional", "name": "Archilleon II", "wheelchair": "limited"}}, {"type": "node", "id": 327547147, "lat": 53.5945778, "lon": 9.9982414, "tags": {"addr:city": "Hamburg", "addr:country": "DE", "addr:housenumber": "37", "addr:postcode": "22299", "addr:street": "Hudtwalckerstra\u00dfe", "amenity": "restaurant", "cuisine": "italian", "name": "Ristorante da Lui", "toilets:wheelchair": "no", "wheelchair": "yes"}}, {"type": "node", "id": 327636232, "lat": 53.5952194, "lon": 10.0000747, "tags": {"name": "Irodion", "cuisine": "greek", "contact:website": "www.irodion-hamburg.de", "addr:city": "Hamburg", "addr:country": "DE", "addr:housenumber": "12", "addr:postcode": "22299", "addr:street": "Ohlsdorfer Stra\u00dfe", "amenity": "restaurant"}}, {"type": "node", "id": 328705065, "lat": 53.5811053, "lon": 9.9696468, "tags": {"name": "Mama Leonne", "cuisine": "italian", "amenity": "restaurant"}}, {"type": "node", "id": 332366571, "lat": 53.6349387, "lon": 9.9191926, "tags": {"name": "Gyo Sushi", "amenity": "restaurant", "cuisine": "sushi"}}, {"type": "node", "id": 333695775, "lat": 53.5618202, "lon": 9.8200222, "tags": {"contact:website": "https://r-grande.eu/kontakt/", "wheelchair": "yes", "name": "Rio Grande", "addr:city": "Hamburg", "addr:country": "DE", "addr:housenumber": "2", "addr:postcode": "22587", "addr:street": "Dockenhudener Stra\u00dfe", "amenity": "restaurant", "contact:phone": "+49 40 88941941"}}, {"type": "node", "id": 334119162, "lat": 53.5762061, "lon": 9.7151652}, {"type": "node", "id": 334119178, "lat": 53.5761882, "lon": 9.7150107}, {"type": "node", "id": 334119183, "lat": 53.5760652, "lon": 9.7150511}, {"type": "node", "id": 334131062, "lat": 53.5760689, "lon": 9.7150829}, {"type": "node", "id": 334131064, "lat": 53.5759642, "lon": 9.7151173}, {"type": "node", "id": 334131068, "lat": 53.5760831, "lon": 9.7152056}, {"type": "node", "id": 334131071, "lat": 53.5759764, "lon": 9.7152224}, {"type": "node", "id": 334131074, "lat": 53.576081, "lon": 9.715188}, {"type": "node", "id": 335536340, "lat": 53.580246, "lon": 9.7210523}, {"type": "node", "id": 335536342, "lat": 53.5801824, "lon": 9.7207643}, {"type": "node", "id": 335536344, "lat": 53.5802515, "lon": 9.720721}, {"type": "node", "id": 335536345, "lat": 53.5803151, "lon": 9.721009}, {"type": "node", "id": 336700279, "lat": 53.5629243, "lon": 9.9487358, "tags": {"opening_hours": "Tu-Fr 14:00-24:00;Sa-Su 11:00-24:00", "name": "Fes", "amenity": "restaurant"}}, {"type": "node", "id": 336700300, "lat": 53.563131, "lon": 9.9489125, "tags": {"amenity": "restaurant", "cuisine": "italian", "name": "Il Cristallo", "wheelchair": "no", "wheelchair:description:de": "Stufen am Eingang"}}, {"type": "node", "id": 336700307, "lat": 53.5638543, "lon": 9.9506977, "tags": {"addr:city": "Hamburg", "addr:housenumber": "3", "addr:postcode": "22769", "addr:street": "Gefionstra\u00dfe", "amenity": "restaurant", "cuisine": "asian", "name": "Breitengrad", "outdoor_seating": "terrace", "phone": "+49 40 4318 9999", "toilets:wheelchair": "no", "website": "https://www.restaurant-breitengrad-hamburg.de/", "wheelchair": "yes"}}, {"type": "node", "id": 337446644, "lat": 53.5688397, "lon": 9.9832316, "tags": {"addr:city": "Hamburg", "addr:country": "DE", "addr:housenumber": "39", "addr:postcode": "20146", "addr:street": "Grindelhof", "amenity": "restaurant", "contact:phone": "+49 40 41620995", "contact:website": "http://www.panjaab.de/", "cuisine": "indian", "diet:vegetarian": "yes", "name": "Panjaab", "opening_hours": "Mo-Sa 11:30-23:00; Su 12:00-22:30", "wheelchair": "yes"}}, {"type": "node", "id": 338923135, "lat": 53.5588624, "lon": 9.8130432, "tags": {"amenity": "restaurant", "name": "Baurspark"}}, {"type": "node", "id": 341788134, "lat": 53.5579996, "lon": 10.0123623, "tags": {"amenity": "restaurant", "cuisine": "italian", "diet:vegan": "no", "diet:vegetarian": "yes", "name": "Casa Di Roma", "opening_hours": "Mo-Su 11:30-24:00", "wheelchair": "no"}}, {"type": "node", "id": 343474533, "lat": 53.5296086, "lon": 10.2783411, "tags": {"amenity": "restaurant", "cuisine": "regional", "website": "https://www.niemanns-gasthof.de/", "smoking": "outside", "addr:street": "Silk", "addr:city": "Reinbek", "addr:housenumber": "5", "addr:postcode": "21465", "name": "Niemann's Gasthof", "phone": "+4941042391"}}, {"type": "node", "id": 344623992, "lat": 53.5464189, "lon": 9.9222532, "tags": {"phone": "+40 380 79 985", "addr:city": "Hamburg", "addr:country": "DE", "addr:housenumber": "94", "addr:postcode": "22763", "addr:street": "Elbchaussee", "amenity": "restaurant", "cuisine": "italian", "name": "Il Gambero", "opening_hours": "Tu-Fr 12:00-15:00,18:00-23:00;Sa 18:00-23:00;Su 12:00-22:00", "website": "https://il-gambero.com"}}, {"type": "node", "id": 347280334, "lat": 53.5584999, "lon": 9.9903117, "tags": {"addr:city": "Hamburg", "addr:country": "DE", "addr:housenumber": "10", "addr:postcode": "20354", "addr:street": "Stephansplatz", "amenity": "restaurant", "cuisine": "italian", "name": "Tarantella", "opening_hours": "Mo-We,Su 11:30-24:00; Th-Sa 11:30-01:00", "phone": "+49 40 65067790", "website": "https://www.tarantella.cc/"}}, {"type": "node", "id": 351360866, "lat": 53.550202, "lon": 9.926919, "tags": {"wheelchair": "limited", "name": "Nostalgia bei Sotiris", "cuisine": "greek", "contact:phone": "+49 40 39907467", "amenity": "restaurant", "addr:street": "Eulenstra\u00dfe", "addr:city": "Hamburg", "addr:country": "DE", "addr:housenumber": "49", "addr:postcode": "22765"}}, {"type": "node", "id": 351521856, "lat": 53.5504244, "lon": 9.9272788, "tags": {"wheelchair": "no", "takeaway": "yes", "reservation": "yes", "addr:city": "Hamburg", "addr:country": "DE", "addr:housenumber": "38", "addr:postcode": "22765", "addr:street": "Eulenstra\u00dfe", "amenity": "restaurant", "contact:phone": "+49 40 84600904", "contact:website": "https://flying-market.business.site/", "cuisine": "vietnamese", "delivery": "yes", "diet:gluten_free": "yes", "diet:vegan": "yes", "diet:vegetarian": "yes", "name": "Flying Market", "opening_hours": "Mo-Su 12:00-22:30"}}, {"type": "node", "id": 351578410, "lat": 53.5520783, "lon": 9.9332358, "tags": {"addr:city": "Hamburg", "addr:country": "DE", "addr:housenumber": "1", "addr:postcode": "22765", "addr:street": "Ottenser Hauptstra\u00dfe", "amenity": "restaurant", "check_date": "2020-10-31", "contact:phone": "+49 40 39903390", "contact:website": "https://www.bokrestaurant.de/standorte", "cuisine": "asian", "name": "BOK", "opening_hours": "11:30-22:00", "wheelchair": "yes"}}, {"type": "node", "id": 353310110, "lat": 53.5591667, "lon": 9.9249321, "tags": {"wheelchair": "yes", "website": "https://www.farina.pizza/", "name": "Farina", "cuisine": "pizza", "phone": "+491628663600", "addr:city": "Hamburg", "addr:housenumber": "190", "addr:postcode": "22765", "addr:street": "Gau\u00dfstra\u00dfe", "amenity": "restaurant"}}, {"type": "node", "id": 355242188, "lat": 53.549683, "lon": 9.9303866, "tags": {"opening_hours": "Tu-Sa 15:00-22:00", "smoking": "no", "name": "El Jard\u00edn", "outdoor_seating": "no", "addr:city": "Hamburg", "addr:country": "DE", "addr:housenumber": "2", "addr:postcode": "22765", "addr:street": "Arnoldstra\u00dfe", "amenity": "restaurant", "check_date": "2020-07-05", "contact:phone": "+49 40 333101", "contact:website": "https://www.eljardinhamburg.com/", "cuisine": "spanish"}}, {"type": "node", "id": 355602130, "lat": 53.5568042, "lon": 9.9214916, "tags": {"wheelchair:description": "Behinderten-WC eng aber benutzbar", "wheelchair": "limited", "opening_hours": "Mo-Th 12:00-22:00; Fr 12:00-23:00; Sa 09:30-23:00; Su 10:00-22:00", "name": "Froindlichst", "contact:website": "http://www.froindlichst.com/", "website": "http://www.froindlichst.com", "amenity": "restaurant", "contact:phone": "+49 40 88177878", "diet:vegan": "only", "diet:vegetarian": "yes"}}, {"type": "node", "id": 356744233, "lat": 53.544623, "lon": 9.9132769, "tags": {"opening_hours": "Mar 01-Oct 31: 11:30-22:00; Nov 01-Feb 28: Tu,We,Su 11:30-17:00; Nov 01-Feb 28: Th,Fr,Sa 11:30-21:00; Nov 01-Feb 28: Mo off", "amenity": "restaurant", "alt_name": "Hoppe's", "addr:street": "\u00d6velg\u00f6nne", "addr:postcode": "22605", "addr:housenumber": "6", "addr:country": "DE", "addr:city": "Hamburg", "website": "http://fischrestaurant-hoppe.de", "name": "Fischrestaurant Hoppe", "phone": "+49408800445"}}, {"type": "node", "id": 356744981, "lat": 53.5445322, "lon": 9.9140735, "tags": {"website": "http://www.cafe-elbterrassen.de", "amenity": "restaurant", "addr:street": "\u00d6velg\u00f6nne", "addr:postcode": "22605", "addr:housenumber": "1", "addr:country": "DE", "name": "Cafe Elbterrassen", "addr:city": "Hamburg"}}, {"type": "node", "id": 356750258, "lat": 53.5449087, "lon": 9.9120362, "tags": {"wheelchair": "limited", "wheelchair:description": "Es ist eine Rampe erforderlich die jedoch im Restaurant vorhanden ist - daf\u00fcr bitte einfach anrufen oder drinnen Bescheid geben", "amenity": "restaurant", "diet:vegetarian": "yes", "email": "info@zum-alten-lotsenhaus.de", "fax": "+49 40 319929-67", "lastcheck": "2012-07-06", "name": "Zum alten Lotsenhaus", "opening_hours": "Mo-Th 18:00+, Fr-Su 12:00+; PH 12:00+", "phone": "+49 40 88001-96", "website": "https://www.zum-alten-lotsenhaus.de"}}, {"type": "node", "id": 356752501, "lat": 53.5447791, "lon": 9.9080039, "tags": {"wheelchair": "limited", "name": "S\u00fc\u00dfwasser", "amenity": "restaurant", "addr:city": "Hamburg", "addr:country": "DE", "addr:housenumber": "38", "addr:postcode": "22605", "addr:street": "\u00d6velg\u00f6nne"}}, {"type": "node", "id": 356809795, "lat": 53.7040043, "lon": 10.0087604, "tags": {"addr:housenumber": "3", "wheelchair": "limited", "toilets:wheelchair": "no", "amenity": "restaurant", "name": "Mongolei", "opening_hours": "Mo,We-Fr 12:00-15:00,17:00-23:00; Sa,Su,PH 12:00-23:00; Tu off", "addr:street": "Marktplatz", "addr:postcode": "22844", "addr:city": "Norderstedt"}}, {"type": "node", "id": 360177216, "lat": 53.5741801, "lon": 9.6812498, "tags": {"addr:city": "Wedel", "addr:country": "DE", "addr:housenumber": "19", "addr:postcode": "22880", "addr:street": "Deichstra\u00dfe", "amenity": "restaurant", "cuisine": "regional", "name": "Tonne 122", "phone": "+49 4103 13198", "seamark:name": "Tonne 122", "seamark:small_craft_facility:category": "restaurant", "seamark:type": "small_craft_facility", "website": "http://www.tonne122.de", "wheelchair": "limited"}}, {"type": "node", "id": 360476575, "lat": 53.586556, "lon": 10.1596393}, {"type": "node", "id": 360476577, "lat": 53.5866755, "lon": 10.1601709}, {"type": "node", "id": 360476579, "lat": 53.5861471, "lon": 10.1605078}, {"type": "node", "id": 360476581, "lat": 53.5860345, "lon": 10.1600069}, {"type": "node", "id": 360476582, "lat": 53.586178, "lon": 10.1599154}, {"type": "node", "id": 360476583, "lat": 53.5862183, "lon": 10.1600947}, {"type": "node", "id": 360476585, "lat": 53.586526, "lon": 10.1598985}, {"type": "node", "id": 360476586, "lat": 53.5864788, "lon": 10.1596886}, {"type": "node", "id": 363390989, "lat": 53.5982403, "lon": 10.0379638, "tags": {"wheelchair": "no", "website": "http://www.kalliopea.de/", "toilets:wheelchair": "no", "phone": "+49 40 6310596", "name": "Kalliopea", "email": "Kalliopea@web.de", "cuisine": "greek", "amenity": "restaurant"}}, {"type": "node", "id": 363579305, "lat": 53.5086186, "lon": 10.2527661, "tags": {"addr:city": "Reinbek", "addr:housenumber": "7", "addr:postcode": "21465", "addr:street": "Sophienstra\u00dfe", "amenity": "restaurant", "capacity": "30", "cuisine": "kebab;burger", "name": "Mr. Kebab House", "opening_hours": "Mo-Fr 12:00-22:00;Sa,Su 14:00-22:00", "phone": "+49 15222551003", "smoking": "no", "website": "https://www.mr-kebab-house-reinbek.de", "wheelchair": "limited"}}, {"type": "node", "id": 363658590, "lat": 53.6424537, "lon": 10.1295672, "tags": {"delivery": "no", "opening_hours": "Mo-Th 12:00-22:30; Fr,Sa 12:00-23:00; Su 12:00-21:30", "addr:city": "Hamburg", "addr:country": "DE", "addr:housenumber": "35", "addr:postcode": "22393", "addr:street": "Meiendorfer M\u00fchlenweg", "amenity": "restaurant", "cuisine": "greek", "email": "kontakt@restaurant-leandros.de", "name": "Leandros", "opening_hours:kitchen": "Mo-Th 12:00-21:30; Fr,Sa 12:00-22:00; Su 12:00-21:00", "operator": "Ulrike St\u00e4dter und Nikolaos Kosmidis / Leandros GbR", "outdoor_seating": "yes", "phone": "+49 40 49207616", "smoking": "outside", "source": "Website", "takeaway": "yes", "website": "https://restaurant-leandros.de/", "wheelchair": "yes"}}, {"type": "node", "id": 364138843, "lat": 53.5541161, "lon": 9.9797517, "tags": {"website": "http://felds-salat.de/", "name": "Feld's Salat", "diet:vegetarian": "yes", "diet:vegan": "yes", "cuisine": "salad", "amenity": "restaurant"}}, {"type": "node", "id": 364142788, "lat": 53.5517835, "lon": 9.9805717, "tags": {"amenity": "restaurant", "cuisine": "italian", "wheelchair": "no", "name": "Il Girasole", "opening_hours": "Mo-Fr 12:00-15:30,17:30-23:00; Sa,Su 17:30+", "phone": "+49 40 35719261"}}, {"type": "node", "id": 364142790, "lat": 53.5517302, "lon": 9.9802985, "tags": {"contact:website": "http://www.lovinghut.de/hamburg/", "wheelchair": "limited", "toilets:wheelchair": "no", "cuisine": "international;asian", "phone": "+49 40 57221029", "name": "Loving Hut", "diet:vegetarian": "only", "diet:vegan": "only", "brand:wikipedia": "en:Loving Hut", "addr:city": "Hamburg", "addr:housenumber": "2", "addr:postcode": "20355", "addr:street": "Markusstra\u00dfe", "amenity": "restaurant", "brand": "Loving Hut", "brand:wikidata": "Q3491655"}}, {"type": "node", "id": 364428604, "lat": 53.598338, "lon": 9.8587833, "tags": {"addr:city": "Hamburg", "addr:country": "DE", "addr:street": "Luruper Hauptstra\u00dfe", "amenity": "restaurant", "cuisine": "greek", "drive_in": "no", "level": "1", "microbrewery": "no", "name": "Hellas", "outdoor_seating": "yes", "wheelchair": "no"}}, {"type": "node", "id": 365211000, "lat": 53.5322689, "lon": 9.6812485, "tags": {"amenity": "restaurant", "cuisine": "german", "name": "Altstadtrestaurant", "wheelchair": "limited"}}, {"type": "node", "id": 366731509, "lat": 53.6026462, "lon": 10.1546528, "tags": {"opening_hours": "Mo-Sa 11:30-22:00, Su 16:00-22:00", "addr:city": "Hamburg", "addr:country": "DE", "addr:housenumber": "41", "addr:postcode": "22143", "addr:street": "Rahlstedter Bahnhofstra\u00dfe", "amenity": "restaurant", "cuisine": "asian", "delivery": "yes", "internet_access": "wlan", "name": "Asia Lam", "payment:cash": "yes", "payment:credit_cards": "no", "payment:debit_cards": "no", "payment:electronic_purses": "no", "phone": "+49-40-6721160", "smoking": "no", "takeaway": "yes", "toilets:wheelchair": "no", "website": "https://asialam.eatbu.com", "wheelchair": "no"}}, {"type": "node", "id": 367004365, "lat": 53.6004213, "lon": 9.8736328, "tags": {"amenity": "restaurant", "cuisine": "greek", "name": "Grilltaverne Hellas"}}, {"type": "node", "id": 367854747, "lat": 53.5988241, "lon": 9.8616938}, {"type": "node", "id": 367854748, "lat": 53.5989126, "lon": 9.8617434}, {"type": "node", "id": 367854749, "lat": 53.5988934, "lon": 9.8619855}, {"type": "node", "id": 367854750, "lat": 53.5988163, "lon": 9.8619788}, {"type": "node", "id": 367854751, "lat": 53.5987991, "lon": 9.8618178}, {"type": "node", "id": 369741259, "lat": 53.5717261, "lon": 9.8012699}, {"type": "node", "id": 369815345, "lat": 53.5685648, "lon": 10.1745448, "tags": {"opening_hours": "Mo-Sa 17:30-23:00; Su,Ph 12:00-23:00", "addr:city": "Barsb\u00fcttel", "addr:country": "DE", "addr:housenumber": "1", "addr:postcode": "22885", "addr:street": "Buchenstra\u00dfe", "amenity": "restaurant", "cuisine": "croatian;international", "internet_access": "no", "name": "Dubrovnik", "phone": "+49 40 97074211", "smoking": "no", "wheelchair": "no"}}, {"type": "node", "id": 369986450, "lat": 53.5367134, "lon": 10.033745, "tags": {"wheelchair": "limited", "amenity": "restaurant", "cuisine": "german", "description": "Restaurant Bar Fr\u00fchsct\u00fcck Mittagtisch", "addr:street": "Billhorner R\u00f6hrendamm", "name": "Alt Deutsche K\u00fcche Elbbr\u00fccken", "addr:postcode": "20539", "addr:housenumber": "94", "addr:country": "DE", "website": "http://www.altdeutsche-kueche-elbbruecken.de", "addr:city": "Hamburg"}}, {"type": "node", "id": 370256242, "lat": 53.6080983, "lon": 9.8404348, "tags": {"amenity": "restaurant", "cuisine": "chinese", "name": "Mr. Hoh", "wheelchair": "limited"}}, {"type": "node", "id": 370282901, "lat": 53.5895078, "lon": 9.9688407}, {"type": "node", "id": 370282902, "lat": 53.5895995, "lon": 9.9696389}, {"type": "node", "id": 370282904, "lat": 53.5894925, "lon": 9.9696818}, {"type": "node", "id": 370282905, "lat": 53.5894059, "lon": 9.9688664}, {"type": "node", "id": 370784196, "lat": 53.5489483, "lon": 10.0227351, "tags": {"addr:street": "Gotenstra\u00dfe", "addr:postcode": "20097", "amenity": "restaurant", "name": "Heng Woh", "addr:housenumber": "3", "addr:city": "Hamburg"}}, {"type": "node", "id": 370837625, "lat": 53.570385, "lon": 10.0592474, "tags": {"amenity": "restaurant", "wheelchair": "limited", "name": "Stein's"}}, {"type": "node", "id": 371067633, "lat": 53.5447152, "lon": 10.0249463, "tags": {"website": "http://www.pastaria-hamburg.de/", "addr:city": "Hamburg", "addr:country": "DE", "addr:housenumber": "90", "addr:postcode": "20097", "addr:street": "Hammerbrookstra\u00dfe", "amenity": "restaurant", "cuisine": "pizza;regional;italian;chicken;german;pasta", "level": "0", "name": "Pastaria", "outdoor_seating": "yes", "smoking": "outside", "source": "local knowledge;survey", "takeaway": "yes", "wheelchair": "limited"}}, {"type": "node", "id": 371106307, "lat": 53.6549364, "lon": 10.0933156}, {"type": "node", "id": 371332085, "lat": 53.5443638, "lon": 10.025068, "tags": {"addr:city": "Hamburg", "addr:country": "DE", "addr:housenumber": "92", "addr:postcode": "20097", "addr:street": "Hammerbrookstra\u00dfe", "amenity": "restaurant", "name": "Pic-a-deli", "wheelchair": "limited"}}, {"type": "node", "id": 371757818, "lat": 53.5336461, "lon": 9.8720851, "tags": {"amenity": "restaurant", "cuisine": "greek", "name": "Dionysos", "opening_hours": "Mo-Sa 17:00-23:00;Su 12:00-23:00", "phone": "+49 40 3339793", "website": "http://www.dionysoshamburg.de/", "wheelchair": "yes"}}, {"type": "node", "id": 372530675, "lat": 53.469629, "lon": 9.854674, "tags": {"wheelchair": "no", "name": "Taverna Korfu", "addr:city": "Hamburg", "addr:housenumber": "27", "addr:postcode": "21149", "addr:street": "Neugrabener Bahnhofstra\u00dfe", "amenity": "restaurant", "cuisine": "greek"}}, {"type": "node", "id": 372733213, "lat": 53.5441867, "lon": 9.9391783, "tags": {"addr:city": "Hamburg", "addr:country": "DE", "addr:housenumber": "133", "addr:postcode": "22767", "addr:street": "Gro\u00dfe Elbstra\u00dfe", "amenity": "restaurant", "cuisine": "thai", "name": "buddha's kitchen", "wheelchair": "limited"}}, {"type": "node", "id": 372734691, "lat": 53.5444836, "lon": 9.9343511, "tags": {"name": "Au Quai", "addr:city": "Hamburg", "addr:country": "DE", "addr:housenumber": "145b-d", "addr:postcode": "22767", "addr:street": "Gro\u00dfe Elbstra\u00dfe", "amenity": "restaurant"}}, {"type": "node", "id": 373241542, "lat": 53.4491354, "lon": 9.9836556, "tags": {"amenity": "restaurant", "name": "Entennest"}}, {"type": "node", "id": 377987457, "lat": 53.5657249, "lon": 10.0191581, "tags": {"opening_hours": "Mo-Fr 17:00+; Sa 12:00+; Su 10:00+", "addr:city": "Hamburg", "addr:country": "DE", "addr:housenumber": "7", "addr:postcode": "22087", "addr:street": "Hartwicusstra\u00dfe", "amenity": "restaurant", "name": "Anleger 1870", "website": "http://www.anleger1870.de", "wheelchair": "no"}}, {"type": "node", "id": 378819328, "lat": 53.4696254, "lon": 10.2868486, "tags": {"amenity": "restaurant", "cuisine": "german", "name": "Sachsenwald"}}, {"type": "node", "id": 384616603, "lat": 53.5716706, "lon": 9.8980627, "tags": {"name": "Dubrovnik", "wheelchair": "no", "website": "www.restaurant-dubrovnik.de", "opening_hours": "Tu-Sa 12:00-15:00,17:30-23:00; Su 12:00-21:30", "addr:city": "Hamburg", "addr:country": "DE", "addr:housenumber": "2", "addr:postcode": "22761", "addr:street": "Luruper Chaussee", "amenity": "restaurant", "cuisine": "kebab", "phone": "+49 40 89066444"}}, {"type": "node", "id": 384642088, "lat": 53.5710198, "lon": 9.8991944, "tags": {"amenity": "restaurant", "name": "Tre Posi", "cuisine": "italian"}}, {"type": "node", "id": 385090860, "lat": 53.5990664, "lon": 9.8458704, "tags": {"cuisine": "chicken;burger", "name": "Gagga", "wheelchair": "limited", "website": "http://www.gagga-restobar.de/", "addr:city": "Schenefeld", "addr:housenumber": "61", "addr:postcode": "22869", "addr:street": "Altonaer Chaussee", "amenity": "restaurant", "delivery": "yes"}}, {"type": "node", "id": 385090862, "lat": 53.5519122, "lon": 9.9439957, "tags": {"cuisine": "mediterranean", "website": "http://www.green-leaf-altona.de/", "takeaway": "yes", "phone": "+49 15141874433", "name": "Green Leaf", "email": "info@green-leaf-altona.de", "addr:city": "Hamburg", "addr:country": "DE", "addr:housenumber": "199a", "addr:postcode": "22767", "addr:street": "Gro\u00dfe Bergstra\u00dfe", "amenity": "restaurant", "contact:facebook": "https://www.facebook.com/greenleafaltona.de/", "contact:instagram": "https://www.instagram.com/greenleafaltona/", "diet:dairy_free": "yes", "diet:gluten_free": "yes", "diet:vegan": "yes", "diet:vegetarian": "yes"}}, {"type": "node", "id": 386177280, "lat": 53.6252064, "lon": 10.1404681, "tags": {"wheelchair": "no", "addr:city": "Hamburg", "addr:country": "DE", "addr:housenumber": "120", "addr:postcode": "22147", "addr:street": "Hermann-Balk-Stra\u00dfe", "amenity": "restaurant", "cuisine": "asian", "name": "Asia-K\u00fcche", "website": "http://www.asiakueche-hh.de/"}}, {"type": "node", "id": 386177304, "lat": 53.624368, "lon": 10.1406916, "tags": {"addr:city": "Hamburg", "addr:country": "DE", "addr:housenumber": "112", "addr:postcode": "22147", "addr:street": "Hermann-Balk-Stra\u00dfe", "amenity": "restaurant", "cuisine": "greek", "name": "Estia", "opening_hours": "Mo-Fr 12:00-15:00,17:00-22:00; PH,Sa,Su 12:00-22:00", "phone": "+49 40 64400995", "website": "https://restaurant-estia.de/", "wheelchair": "limited"}}, {"type": "node", "id": 386424489, "lat": 53.556464, "lon": 9.8083435, "tags": {"amenity": "restaurant", "wheelchair": "no", "website": "https://www.strandhotel-blankenese.de/", "tourism": "hotel", "phone": "+49 40 861344", "name": "Strandhotel Blankenese", "lastcheck": "2012-12-03", "addr:city": "Hamburg", "addr:country": "DE", "addr:housenumber": "13", "addr:postcode": "22587", "addr:street": "Strandweg"}}, {"type": "node", "id": 386574568, "lat": 53.6000436, "lon": 10.0119373, "tags": {"wheelchair": "limited", "amenity": "restaurant", "name": "Schweinske"}}, {"type": "node", "id": 387134886, "lat": 53.4723112, "lon": 9.8520969, "tags": {"amenity": "restaurant", "contact:phone": "+49 40 7025544", "contact:website": "https://www.chinarestaurant-lily.de/", "cuisine": "chinese", "name": "Lily", "opening_hours": "Mo-Su 11:30-23:30", "toilets:wheelchair": "no", "wheelchair": "yes"}}, {"type": "node", "id": 387443219, "lat": 53.5445995, "lon": 9.9430573, "tags": {"addr:city": "Hamburg", "addr:country": "DE", "addr:housenumber": "160", "addr:postcode": "22767", "addr:street": "Gro\u00dfe Elbstra\u00dfe", "amenity": "restaurant", "cuisine": "sushi", "name": "Henssler & Henssler", "opening_hours": "Mo-Sa 12:00-15:00, 18:00-23:30", "phone": "+49 40 38699000", "toilets:wheelchair": "no", "website": "https://hensslerhenssler.de/", "wheelchair": "yes", "wheelchair:description": "Hintereingang"}}, {"type": "node", "id": 387735453, "lat": 53.5529903, "lon": 9.9543888, "tags": {"addr:city": "Hamburg", "addr:country": "DE", "addr:housenumber": "22", "addr:postcode": "22767", "addr:street": "Holstenstra\u00dfe", "wheelchair": "no", "name": "Burger Lounge", "cuisine": "burger", "amenity": "restaurant"}}, {"type": "node", "id": 387843463, "lat": 53.5822487, "lon": 10.0434769, "tags": {"wheelchair": "limited", "ref": "Barmbek", "phone": "+49 40 291530", "amenity": "restaurant", "addr:street": "Barmbeker Markt", "name": "Schweinske", "opening_hours": "Mo-Sa 08:00-24:00; Su 09:00-24:00", "addr:postcode": "22081", "addr:housenumber": "19", "addr:country": "DE", "website": "http://www.schweinske.de", "addr:city": "Hamburg"}}, {"type": "node", "id": 388299642, "lat": 53.6226155, "lon": 9.9510158, "tags": {"addr:city": "Hamburg", "addr:country": "DE", "addr:housenumber": "13", "addr:postcode": "22459", "addr:street": "Wendlohstra\u00dfe", "addr:suburb": "Niendorf", "amenity": "restaurant", "cuisine": "greek", "delivery": "no", "email": "taverna-santorini@grieche-hamburg.de", "name": "Taverna Santorini", "opening_hours": "Tu-Sa 12:00-23:00; Su 12:00-22:00", "operator": "Lefti Giankoulas", "phone": "+49 40 22628444", "smoking": "outside", "source": "website", "takeaway": "yes", "website": "https://grieche-hamburg.de", "wheelchair": "limited"}}, {"type": "node", "id": 388849684, "lat": 53.530058, "lon": 10.0410454, "tags": {"addr:city": "Hamburg", "addr:country": "DE", "addr:housenumber": "8", "addr:postcode": "20539", "addr:street": "Entenwerder Stieg", "amenity": "restaurant", "cuisine": "regional", "name": "Entenwerder F\u00e4hrhaus", "wheelchair": "limited"}}, {"type": "node", "id": 389351401, "lat": 53.5842553, "lon": 9.9524687, "tags": {"amenity": "restaurant"}}, {"type": "node", "id": 389793242, "lat": 53.4243717, "lon": 10.295403, "tags": {"opening_hours": "Nov 19-Feb 26: Mo-Tu off; Sep-May: We,Th 17:00-22:00; Fr 17:00-23:00; Sa 12:00-23:00; Su 09:00-11:00; Su,PH 12:00-22:00; Jun-Aug: Mo-Fr 12:00-15:00, 17:00-23:00; Sa 12:00-24:00; Su 09:00-23:00", "addr:city": "Drage (Elbe)", "addr:country": "DE", "addr:housenumber": "10", "addr:postcode": "21423", "addr:street": "Stover Strand", "amenity": "restaurant", "contact:email": "info@restaurant-stover-strand.de", "contact:fax": "+49 4177 7116889", "contact:phone": "+49 4177 7116888", "contact:website": "http://www.restaurant-stover-strand.de", "name": "Restaurant Stover Strand", "wheelchair": "no"}}, {"type": "node", "id": 390986310, "lat": 53.5191381, "lon": 9.7313864, "tags": {"addr:housenumber": "2", "addr:street": "Gro\u00df Hove", "amenity": "restaurant", "cuisine": "german", "email": "dddasgelbevomei@t-online.de", "name": "Dammanns", "phone": "+49 4162 9131989", "website": "https://www.dd-dasgelbevomei.de", "wheelchair": "limited"}}, {"type": "node", "id": 392359327, "lat": 53.60568, "lon": 9.80138}, {"type": "node", "id": 392360068, "lat": 53.6053999, "lon": 9.8013714}, {"type": "node", "id": 392360069, "lat": 53.6053184, "lon": 9.8013457}, {"type": "node", "id": 392360070, "lat": 53.6053439, "lon": 9.8011397}, {"type": "node", "id": 392360071, "lat": 53.6054559, "lon": 9.801174}, {"type": "node", "id": 392360073, "lat": 53.6054661, "lon": 9.8015259}, {"type": "node", "id": 392360074, "lat": 53.6053846, "lon": 9.8015002}, {"type": "node", "id": 392678216, "lat": 53.6020363, "lon": 9.8367788, "tags": {"phone": "+49-040-63943175", "amenity": "restaurant", "cuisine": "steak_house;american", "email": "info@rodeo.stadtzentrum.biz", "name": "Rodeo", "opening_hours": "Mo-Su 08:00-22:00", "wheelchair": "yes"}}, {"type": "node", "id": 393186761, "lat": 53.6726163, "lon": 9.7746312, "tags": {"amenity": "restaurant", "name": "Campana"}},